{"type":"FeatureCollection","name":"ne_10m_populated_places_simple","crs":{"type":"name","properties":{"name":"urn:ogc:def:crs:OGC:1.3:CRS84"}},"features":[{"type":"Feature","properties":{"scalerank":10,"name":"Colonia del Sacramento","pop_min":22,"pop_max":22,"adm0_a3":"URY","ne_id":1159112629},"geometry":{"type":"Point","coordinates":[-57.836116,-34.469788]}},{"type":"Feature","properties":{"scalerank":10,"name":"Trinidad","pop_min":21,"pop_max":21,"adm0_a3":"URY","ne_id":1159112647},"geometry":{"type":"Point","coordinates":[-56.900997,-33.543999]}},{"type":"Feature","properties":{"scalerank":10,"name":"Fray Bentos","pop_min":23,"pop_max":23,"adm0_a3":"URY","ne_id":1159112663},"geometry":{"type":"Point","coordinates":[-58.303997,-33.138999]}},{"type":"Feature","properties":{"scalerank":10,"name":"Canelones","pop_min":20,"pop_max":20,"adm0_a3":"URY","ne_id":1159112679},"geometry":{"type":"Point","coordinates":[-56.284001,-34.538004]}},{"type":"Feature","properties":{"scalerank":10,"name":"Florida","pop_min":32,"pop_max":32,"adm0_a3":"URY","ne_id":1159112703},"geometry":{"type":"Point","coordinates":[-56.214998,-34.099002]}},{"type":"Feature","properties":{"scalerank":10,"name":"Bassar","pop_min":62,"pop_max":62,"adm0_a3":"TGO","ne_id":1159112719},"geometry":{"type":"Point","coordinates":[0.789004,9.261]}},{"type":"Feature","properties":{"scalerank":10,"name":"Sotouboua","pop_min":21,"pop_max":21,"adm0_a3":"TGO","ne_id":1159112735},"geometry":{"type":"Point","coordinates":[0.984997,8.557002]}},{"type":"Feature","properties":{"scalerank":10,"name":"Medenine","pop_min":62,"pop_max":62,"adm0_a3":"TUN","ne_id":1159112749},"geometry":{"type":"Point","coordinates":[10.4167,33.399999]}},{"type":"Feature","properties":{"scalerank":10,"name":"Kebili","pop_min":20,"pop_max":20,"adm0_a3":"TUN","ne_id":1159112765},"geometry":{"type":"Point","coordinates":[8.971003,33.689997]}},{"type":"Feature","properties":{"scalerank":10,"name":"Tataouine","pop_min":63,"pop_max":63,"adm0_a3":"TUN","ne_id":1159112779},"geometry":{"type":"Point","coordinates":[10.466704,33.000003]}},{"type":"Feature","properties":{"scalerank":10,"name":"L'Ariana","pop_min":98,"pop_max":98,"adm0_a3":"TUN","ne_id":1159112795},"geometry":{"type":"Point","coordinates":[10.199998,36.866673]}},{"type":"Feature","properties":{"scalerank":10,"name":"Jendouba","pop_min":51,"pop_max":51,"adm0_a3":"TUN","ne_id":1159112811},"geometry":{"type":"Point","coordinates":[8.749999,36.500004]}},{"type":"Feature","properties":{"scalerank":10,"name":"Kasserine","pop_min":76,"pop_max":76,"adm0_a3":"TUN","ne_id":1159112827},"geometry":{"type":"Point","coordinates":[8.716699,35.216703]}},{"type":"Feature","properties":{"scalerank":10,"name":"Sdid Bouzid","pop_min":42,"pop_max":42,"adm0_a3":"TUN","ne_id":1159112843},"geometry":{"type":"Point","coordinates":[9.500005,35.016696]}},{"type":"Feature","properties":{"scalerank":10,"name":"Siliana","pop_min":27,"pop_max":27,"adm0_a3":"TUN","ne_id":1159112859},"geometry":{"type":"Point","coordinates":[9.383302,36.083304]}},{"type":"Feature","properties":{"scalerank":10,"name":"Mahdia","pop_min":46,"pop_max":46,"adm0_a3":"TUN","ne_id":1159112873},"geometry":{"type":"Point","coordinates":[11.040877,35.483913]}},{"type":"Feature","properties":{"scalerank":10,"name":"Monastir","pop_min":41,"pop_max":72,"adm0_a3":"TUN","ne_id":1159112893},"geometry":{"type":"Point","coordinates":[10.767295,35.730702]}},{"type":"Feature","properties":{"scalerank":10,"name":"Zaghouan","pop_min":17,"pop_max":17,"adm0_a3":"TUN","ne_id":1159112913},"geometry":{"type":"Point","coordinates":[10.146997,36.399996]}},{"type":"Feature","properties":{"scalerank":10,"name":"Tây Ninh","pop_min":126,"pop_max":126,"adm0_a3":"VNM","ne_id":1159112935},"geometry":{"type":"Point","coordinates":[106.147,11.322999]}},{"type":"Feature","properties":{"scalerank":10,"name":"Luan Chau","pop_min":7,"pop_max":7,"adm0_a3":"VNM","ne_id":1159112955},"geometry":{"type":"Point","coordinates":[103.343005,21.740004]}},{"type":"Feature","properties":{"scalerank":10,"name":"Bắc Kạn","pop_min":29,"pop_max":29,"adm0_a3":"VNM","ne_id":1159112975},"geometry":{"type":"Point","coordinates":[105.833333,22.133333]}},{"type":"Feature","properties":{"scalerank":10,"name":"Lạng Sơn","pop_min":148,"pop_max":148,"adm0_a3":"VNM","ne_id":1159112987},"geometry":{"type":"Point","coordinates":[106.757002,21.845997]}},{"type":"Feature","properties":{"scalerank":10,"name":"Sơn La","pop_min":19,"pop_max":19,"adm0_a3":"VNM","ne_id":1159113001},"geometry":{"type":"Point","coordinates":[103.910005,21.328002]}},{"type":"Feature","properties":{"scalerank":10,"name":"Tuyên Quang","pop_min":36,"pop_max":36,"adm0_a3":"VNM","ne_id":1159113019},"geometry":{"type":"Point","coordinates":[105.211,21.817998]}},{"type":"Feature","properties":{"scalerank":10,"name":"Yên Bái","pop_min":97,"pop_max":97,"adm0_a3":"VNM","ne_id":1159113041},"geometry":{"type":"Point","coordinates":[104.875003,21.705003]}},{"type":"Feature","properties":{"scalerank":10,"name":"Hai Duong","pop_min":58,"pop_max":58,"adm0_a3":"VNM","ne_id":1159113057},"geometry":{"type":"Point","coordinates":[106.331005,20.942001]}},{"type":"Feature","properties":{"scalerank":10,"name":"Thái Bình","pop_min":210,"pop_max":210,"adm0_a3":"VNM","ne_id":1159113073},"geometry":{"type":"Point","coordinates":[106.33303,20.450304]}},{"type":"Feature","properties":{"scalerank":10,"name":"Tuy Hòa","pop_min":70,"pop_max":70,"adm0_a3":"VNM","ne_id":1159113089},"geometry":{"type":"Point","coordinates":[109.315999,13.082004]}},{"type":"Feature","properties":{"scalerank":10,"name":"Thu Dau Mot","pop_min":244,"pop_max":244,"adm0_a3":"VNM","ne_id":1159113099},"geometry":{"type":"Point","coordinates":[106.652746,10.969074]}},{"type":"Feature","properties":{"scalerank":10,"name":"Đông Hà","pop_min":18,"pop_max":18,"adm0_a3":"VNM","ne_id":1159113119},"geometry":{"type":"Point","coordinates":[107.133301,16.849998]}},{"type":"Feature","properties":{"scalerank":10,"name":"Cao Lãnh","pop_min":150,"pop_max":150,"adm0_a3":"VNM","ne_id":1159113135},"geometry":{"type":"Point","coordinates":[105.635998,10.467]}},{"type":"Feature","properties":{"scalerank":10,"name":"Truc Giang","pop_min":59,"pop_max":59,"adm0_a3":"VNM","ne_id":1159113149},"geometry":{"type":"Point","coordinates":[106.374997,10.234998]}},{"type":"Feature","properties":{"scalerank":10,"name":"Tra Vinh","pop_min":131,"pop_max":131,"adm0_a3":"VNM","ne_id":1159113161},"geometry":{"type":"Point","coordinates":[106.334002,9.934002]}},{"type":"Feature","properties":{"scalerank":10,"name":"Vĩnh Long","pop_min":103,"pop_max":103,"adm0_a3":"VNM","ne_id":1159113175},"geometry":{"type":"Point","coordinates":[105.964003,10.256004]}},{"type":"Feature","properties":{"scalerank":10,"name":"Cao Bằng","pop_min":41,"pop_max":41,"adm0_a3":"VNM","ne_id":1159113189},"geometry":{"type":"Point","coordinates":[106.268005,22.663998]}},{"type":"Feature","properties":{"scalerank":10,"name":"Yoro","pop_min":16,"pop_max":16,"adm0_a3":"HND","ne_id":1159113205},"geometry":{"type":"Point","coordinates":[-87.128502,15.129829]}},{"type":"Feature","properties":{"scalerank":10,"name":"La Esperanza","pop_min":5,"pop_max":5,"adm0_a3":"HND","ne_id":1159113221},"geometry":{"type":"Point","coordinates":[-88.166699,14.333004]}},{"type":"Feature","properties":{"scalerank":10,"name":"La Paz","pop_min":18,"pop_max":18,"adm0_a3":"HND","ne_id":1159113237},"geometry":{"type":"Point","coordinates":[-87.684003,14.319999]}},{"type":"Feature","properties":{"scalerank":10,"name":"Santa Bárbara","pop_min":15,"pop_max":15,"adm0_a3":"HND","ne_id":1159113253},"geometry":{"type":"Point","coordinates":[-88.236,14.919003]}},{"type":"Feature","properties":{"scalerank":10,"name":"Gracias","pop_min":8,"pop_max":8,"adm0_a3":"HND","ne_id":1159113269},"geometry":{"type":"Point","coordinates":[-88.5833,14.583303]}},{"type":"Feature","properties":{"scalerank":10,"name":"Nueva Ocotepeque","pop_min":9,"pop_max":9,"adm0_a3":"HND","ne_id":1159113283},"geometry":{"type":"Point","coordinates":[-89.181998,14.436999]}},{"type":"Feature","properties":{"scalerank":10,"name":"Yuscarán","pop_min":2,"pop_max":2,"adm0_a3":"HND","ne_id":1159113299},"geometry":{"type":"Point","coordinates":[-86.850998,13.943997]}},{"type":"Feature","properties":{"scalerank":10,"name":"Jérémie","pop_min":31,"pop_max":31,"adm0_a3":"HTI","ne_id":1159113315},"geometry":{"type":"Point","coordinates":[-74.118425,18.633935]}},{"type":"Feature","properties":{"scalerank":10,"name":"Port-De-Paix","pop_min":35,"pop_max":35,"adm0_a3":"HTI","ne_id":1159113331},"geometry":{"type":"Point","coordinates":[-72.829484,19.93176]}},{"type":"Feature","properties":{"scalerank":10,"name":"Hinche","pop_min":19,"pop_max":19,"adm0_a3":"HTI","ne_id":1159113347},"geometry":{"type":"Point","coordinates":[-72.003996,19.143]}},{"type":"Feature","properties":{"scalerank":10,"name":"Fort-Liberté","pop_min":11,"pop_max":11,"adm0_a3":"HTI","ne_id":1159113361},"geometry":{"type":"Point","coordinates":[-71.844839,19.665567]}},{"type":"Feature","properties":{"scalerank":10,"name":"Jacmel","pop_min":34,"pop_max":34,"adm0_a3":"HTI","ne_id":1159113371},"geometry":{"type":"Point","coordinates":[-72.537003,18.234999]}},{"type":"Feature","properties":{"scalerank":10,"name":"Kırklareli","pop_min":58,"pop_max":58,"adm0_a3":"TUR","ne_id":1159113387},"geometry":{"type":"Point","coordinates":[27.226,41.742999]}},{"type":"Feature","properties":{"scalerank":10,"name":"Bilecik","pop_min":40,"pop_max":40,"adm0_a3":"TUR","ne_id":1159113409},"geometry":{"type":"Point","coordinates":[29.982997,40.149999]}},{"type":"Feature","properties":{"scalerank":10,"name":"Sakarya","pop_min":287,"pop_max":287,"adm0_a3":"TUR","ne_id":1159113425},"geometry":{"type":"Point","coordinates":[30.400003,40.766661]}},{"type":"Feature","properties":{"scalerank":10,"name":"Kastamonu","pop_min":70,"pop_max":70,"adm0_a3":"TUR","ne_id":1159113441},"geometry":{"type":"Point","coordinates":[33.783004,41.389002]}},{"type":"Feature","properties":{"scalerank":10,"name":"Burdur","pop_min":66,"pop_max":66,"adm0_a3":"TUR","ne_id":1159113457},"geometry":{"type":"Point","coordinates":[30.283336,37.71666]}},{"type":"Feature","properties":{"scalerank":10,"name":"Kırşehir","pop_min":94,"pop_max":94,"adm0_a3":"TUR","ne_id":1159113471},"geometry":{"type":"Point","coordinates":[34.171003,39.141999]}},{"type":"Feature","properties":{"scalerank":10,"name":"Nevşehir","pop_min":76,"pop_max":76,"adm0_a3":"TUR","ne_id":1159113485},"geometry":{"type":"Point","coordinates":[34.723999,38.624004]}},{"type":"Feature","properties":{"scalerank":10,"name":"Antakya","pop_min":155,"pop_max":155,"adm0_a3":"TUR","ne_id":1159113499},"geometry":{"type":"Point","coordinates":[36.116677,36.233334]}},{"type":"Feature","properties":{"scalerank":10,"name":"Giresun","pop_min":99,"pop_max":99,"adm0_a3":"TUR","ne_id":1159113515},"geometry":{"type":"Point","coordinates":[38.390005,40.913001]}},{"type":"Feature","properties":{"scalerank":10,"name":"Sinop","pop_min":35,"pop_max":35,"adm0_a3":"TUR","ne_id":1159113529},"geometry":{"type":"Point","coordinates":[35.153002,42.022998]}},{"type":"Feature","properties":{"scalerank":10,"name":"Tokat","pop_min":130,"pop_max":130,"adm0_a3":"TUR","ne_id":1159113547},"geometry":{"type":"Point","coordinates":[36.563005,40.305996]}},{"type":"Feature","properties":{"scalerank":10,"name":"Artvin","pop_min":24,"pop_max":32,"adm0_a3":"TUR","ne_id":1159113561},"geometry":{"type":"Point","coordinates":[41.817997,41.183001]}},{"type":"Feature","properties":{"scalerank":10,"name":"Bingöl","pop_min":81,"pop_max":81,"adm0_a3":"TUR","ne_id":1159113575},"geometry":{"type":"Point","coordinates":[40.498003,38.885004]}},{"type":"Feature","properties":{"scalerank":10,"name":"Bitlis","pop_min":43,"pop_max":63,"adm0_a3":"TUR","ne_id":1159113589},"geometry":{"type":"Point","coordinates":[42.122998,38.394]}},{"type":"Feature","properties":{"scalerank":10,"name":"Kalangala","pop_min":5,"pop_max":5,"adm0_a3":"UGA","ne_id":1159113605},"geometry":{"type":"Point","coordinates":[32.225,-0.308889]}},{"type":"Feature","properties":{"scalerank":10,"name":"Çankırı","pop_min":71,"pop_max":71,"adm0_a3":"TUR","ne_id":1159113633},"geometry":{"type":"Point","coordinates":[33.621004,40.607001]}},{"type":"Feature","properties":{"scalerank":10,"name":"Niğde","pop_min":91,"pop_max":91,"adm0_a3":"TUR","ne_id":1159113643},"geometry":{"type":"Point","coordinates":[34.694002,37.976004]}},{"type":"Feature","properties":{"scalerank":10,"name":"Yozgat","pop_min":88,"pop_max":88,"adm0_a3":"TUR","ne_id":1159113661},"geometry":{"type":"Point","coordinates":[34.814998,39.817998]}},{"type":"Feature","properties":{"scalerank":10,"name":"Gümüşhane","pop_min":32,"pop_max":32,"adm0_a3":"TUR","ne_id":1159113677},"geometry":{"type":"Point","coordinates":[39.484,40.464]}},{"type":"Feature","properties":{"scalerank":10,"name":"Siirt","pop_min":114,"pop_max":114,"adm0_a3":"TUR","ne_id":1159113695},"geometry":{"type":"Point","coordinates":[41.932999,37.944]}},{"type":"Feature","properties":{"scalerank":10,"name":"Tunceli","pop_min":29,"pop_max":29,"adm0_a3":"TUR","ne_id":1159113711},"geometry":{"type":"Point","coordinates":[39.533302,39.1167]}},{"type":"Feature","properties":{"scalerank":10,"name":"Kumi","pop_min":13,"pop_max":13,"adm0_a3":"UGA","ne_id":1159113727},"geometry":{"type":"Point","coordinates":[33.936111,1.460833]}},{"type":"Feature","properties":{"scalerank":10,"name":"Kaberamaido","pop_min":3,"pop_max":3,"adm0_a3":"UGA","ne_id":1159113745},"geometry":{"type":"Point","coordinates":[33.159444,1.738889]}},{"type":"Feature","properties":{"scalerank":10,"name":"Kayunga","pop_min":22,"pop_max":22,"adm0_a3":"UGA","ne_id":1159113757},"geometry":{"type":"Point","coordinates":[32.888611,0.7025]}},{"type":"Feature","properties":{"scalerank":10,"name":"Iganga","pop_min":45,"pop_max":45,"adm0_a3":"UGA","ne_id":1159113777},"geometry":{"type":"Point","coordinates":[33.468611,0.609167]}},{"type":"Feature","properties":{"scalerank":10,"name":"Kamuli","pop_min":13,"pop_max":13,"adm0_a3":"UGA","ne_id":1159113795},"geometry":{"type":"Point","coordinates":[33.119722,0.947222]}},{"type":"Feature","properties":{"scalerank":10,"name":"Pallisa","pop_min":31,"pop_max":31,"adm0_a3":"UGA","ne_id":1159113815},"geometry":{"type":"Point","coordinates":[33.709444,1.145]}},{"type":"Feature","properties":{"scalerank":10,"name":"Mpigi","pop_min":11,"pop_max":11,"adm0_a3":"UGA","ne_id":1159113835},"geometry":{"type":"Point","coordinates":[32.313611,0.225]}},{"type":"Feature","properties":{"scalerank":10,"name":"Adjumani","pop_min":35,"pop_max":35,"adm0_a3":"UGA","ne_id":1159113855},"geometry":{"type":"Point","coordinates":[31.809722,3.361389]}},{"type":"Feature","properties":{"scalerank":10,"name":"Nebbi","pop_min":30,"pop_max":30,"adm0_a3":"UGA","ne_id":1159113869},"geometry":{"type":"Point","coordinates":[31.1025,2.475833]}},{"type":"Feature","properties":{"scalerank":10,"name":"Kiboga","pop_min":15,"pop_max":15,"adm0_a3":"UGA","ne_id":1159113887},"geometry":{"type":"Point","coordinates":[31.774167,0.916111]}},{"type":"Feature","properties":{"scalerank":10,"name":"Nakasongola","pop_min":7,"pop_max":7,"adm0_a3":"UGA","ne_id":1159113905},"geometry":{"type":"Point","coordinates":[32.456389,1.308889]}},{"type":"Feature","properties":{"scalerank":10,"name":"Bombo","pop_min":21,"pop_max":75,"adm0_a3":"UGA","ne_id":1159113923},"geometry":{"type":"Point","coordinates":[32.5333,0.583299]}},{"type":"Feature","properties":{"scalerank":10,"name":"Masindi","pop_min":31,"pop_max":31,"adm0_a3":"UGA","ne_id":1159113945},"geometry":{"type":"Point","coordinates":[31.715,1.674444]}},{"type":"Feature","properties":{"scalerank":10,"name":"Fort Portal","pop_min":43,"pop_max":43,"adm0_a3":"UGA","ne_id":1159113959},"geometry":{"type":"Point","coordinates":[30.275002,0.671004]}},{"type":"Feature","properties":{"scalerank":10,"name":"Kibale","pop_min":5,"pop_max":5,"adm0_a3":"UGA","ne_id":1159113985},"geometry":{"type":"Point","coordinates":[31.066667,0.8]}},{"type":"Feature","properties":{"scalerank":10,"name":"Sironko","pop_min":14,"pop_max":14,"adm0_a3":"UGA","ne_id":1159114003},"geometry":{"type":"Point","coordinates":[34.3,1.25]}},{"type":"Feature","properties":{"scalerank":10,"name":"Busia","pop_min":47,"pop_max":47,"adm0_a3":"UGA","ne_id":1159114009},"geometry":{"type":"Point","coordinates":[34.075833,0.454444]}},{"type":"Feature","properties":{"scalerank":10,"name":"Katakwi","pop_min":8,"pop_max":8,"adm0_a3":"UGA","ne_id":1159114039},"geometry":{"type":"Point","coordinates":[33.966111,1.891111]}},{"type":"Feature","properties":{"scalerank":10,"name":"Veszprém","pop_min":62,"pop_max":62,"adm0_a3":"HUN","ne_id":1159114055},"geometry":{"type":"Point","coordinates":[17.911,47.090997]}},{"type":"Feature","properties":{"scalerank":10,"name":"Zalaegerszeg","pop_min":62,"pop_max":62,"adm0_a3":"HUN","ne_id":1159114075},"geometry":{"type":"Point","coordinates":[16.84,46.844001]}},{"type":"Feature","properties":{"scalerank":10,"name":"Tatabánya","pop_min":71,"pop_max":71,"adm0_a3":"HUN","ne_id":1159114091},"geometry":{"type":"Point","coordinates":[18.433,47.549997]}},{"type":"Feature","properties":{"scalerank":10,"name":"Szekszárd","pop_min":34,"pop_max":34,"adm0_a3":"HUN","ne_id":1159114109},"geometry":{"type":"Point","coordinates":[18.712999,46.343997]}},{"type":"Feature","properties":{"scalerank":10,"name":"Salgótarján","pop_min":40,"pop_max":40,"adm0_a3":"HUN","ne_id":1159114123},"geometry":{"type":"Point","coordinates":[19.826002,48.105]}},{"type":"Feature","properties":{"scalerank":10,"name":"Békéscsaba","pop_min":65,"pop_max":65,"adm0_a3":"HUN","ne_id":1159114145},"geometry":{"type":"Point","coordinates":[21.101005,46.672002]}},{"type":"Feature","properties":{"scalerank":10,"name":"Eger","pop_min":57,"pop_max":57,"adm0_a3":"HUN","ne_id":1159114165},"geometry":{"type":"Point","coordinates":[20.383003,47.895003]}},{"type":"Feature","properties":{"scalerank":10,"name":"Ntungamo","pop_min":16,"pop_max":16,"adm0_a3":"UGA","ne_id":1159114181},"geometry":{"type":"Point","coordinates":[30.264167,-0.879444]}},{"type":"Feature","properties":{"scalerank":10,"name":"Kisoro","pop_min":13,"pop_max":13,"adm0_a3":"UGA","ne_id":1159114209},"geometry":{"type":"Point","coordinates":[29.698333,-1.353889]}},{"type":"Feature","properties":{"scalerank":10,"name":"Gikongoro","pop_min":15,"pop_max":15,"adm0_a3":"RWA","ne_id":1159114227},"geometry":{"type":"Point","coordinates":[29.566702,-2.483298]}},{"type":"Feature","properties":{"scalerank":10,"name":"Kibuye","pop_min":48,"pop_max":48,"adm0_a3":"RWA","ne_id":1159114229},"geometry":{"type":"Point","coordinates":[29.35,-2.050002]}},{"type":"Feature","properties":{"scalerank":10,"name":"Kibungo","pop_min":46,"pop_max":46,"adm0_a3":"RWA","ne_id":1159114247},"geometry":{"type":"Point","coordinates":[30.533302,-2.166696]}},{"type":"Feature","properties":{"scalerank":10,"name":"Târgu Jiu","pop_min":97,"pop_max":97,"adm0_a3":"ROU","ne_id":1159114265},"geometry":{"type":"Point","coordinates":[23.274001,45.045]}},{"type":"Feature","properties":{"scalerank":10,"name":"Slatina","pop_min":79,"pop_max":79,"adm0_a3":"ROU","ne_id":1159114283},"geometry":{"type":"Point","coordinates":[24.371002,44.434998]}},{"type":"Feature","properties":{"scalerank":10,"name":"Alexandria","pop_min":49,"pop_max":49,"adm0_a3":"ROU","ne_id":1159114301},"geometry":{"type":"Point","coordinates":[25.329885,43.97437]}},{"type":"Feature","properties":{"scalerank":10,"name":"Târgoviște","pop_min":88,"pop_max":88,"adm0_a3":"ROU","ne_id":1159114313},"geometry":{"type":"Point","coordinates":[25.459003,44.937999]}},{"type":"Feature","properties":{"scalerank":10,"name":"Giurgiu","pop_min":69,"pop_max":69,"adm0_a3":"ROU","ne_id":1159114333},"geometry":{"type":"Point","coordinates":[25.966325,43.901807]}},{"type":"Feature","properties":{"scalerank":10,"name":"Slobozia","pop_min":53,"pop_max":53,"adm0_a3":"ROU","ne_id":1159114405},"geometry":{"type":"Point","coordinates":[27.381997,44.569998]}},{"type":"Feature","properties":{"scalerank":10,"name":"Dar'a","pop_min":98,"pop_max":146,"adm0_a3":"SYR","ne_id":1159114421},"geometry":{"type":"Point","coordinates":[36.105004,32.625]}},{"type":"Feature","properties":{"scalerank":10,"name":"Delémont","pop_min":11,"pop_max":11,"adm0_a3":"CHE","ne_id":1159114441},"geometry":{"type":"Point","coordinates":[7.345,47.369997]}},{"type":"Feature","properties":{"scalerank":10,"name":"Neuchâtel","pop_min":31,"pop_max":31,"adm0_a3":"CHE","ne_id":1159114457},"geometry":{"type":"Point","coordinates":[6.922999,46.998999]}},{"type":"Feature","properties":{"scalerank":10,"name":"Aarau","pop_min":16,"pop_max":16,"adm0_a3":"CHE","ne_id":1159114477},"geometry":{"type":"Point","coordinates":[8.034004,47.390004]}},{"type":"Feature","properties":{"scalerank":10,"name":"Stans","pop_min":7,"pop_max":7,"adm0_a3":"CHE","ne_id":1159114501},"geometry":{"type":"Point","coordinates":[8.383302,46.950003]}},{"type":"Feature","properties":{"scalerank":10,"name":"Sion","pop_min":28,"pop_max":28,"adm0_a3":"CHE","ne_id":1159114521},"geometry":{"type":"Point","coordinates":[7.354,46.239003]}},{"type":"Feature","properties":{"scalerank":10,"name":"Herisau","pop_min":15,"pop_max":15,"adm0_a3":"CHE","ne_id":1159114539},"geometry":{"type":"Point","coordinates":[9.283303,47.383299]}},{"type":"Feature","properties":{"scalerank":10,"name":"Saint Gallen","pop_min":71,"pop_max":71,"adm0_a3":"CHE","ne_id":1159114557},"geometry":{"type":"Point","coordinates":[9.361999,47.422998]}},{"type":"Feature","properties":{"scalerank":10,"name":"Bellinzona","pop_min":17,"pop_max":17,"adm0_a3":"CHE","ne_id":1159114577},"geometry":{"type":"Point","coordinates":[9.019999,46.197]}},{"type":"Feature","properties":{"scalerank":10,"name":"Glarus","pop_min":6,"pop_max":6,"adm0_a3":"CHE","ne_id":1159114593},"geometry":{"type":"Point","coordinates":[9.0667,47.050002]}},{"type":"Feature","properties":{"scalerank":10,"name":"Schaffhausen","pop_min":34,"pop_max":34,"adm0_a3":"CHE","ne_id":1159114605},"geometry":{"type":"Point","coordinates":[8.632999,47.706003]}},{"type":"Feature","properties":{"scalerank":10,"name":"Schwyz","pop_min":14,"pop_max":14,"adm0_a3":"CHE","ne_id":1159114627},"geometry":{"type":"Point","coordinates":[8.648002,47.019996]}},{"type":"Feature","properties":{"scalerank":10,"name":"Frauenfeld","pop_min":22,"pop_max":22,"adm0_a3":"CHE","ne_id":1159114649},"geometry":{"type":"Point","coordinates":[8.904888,47.552619]}},{"type":"Feature","properties":{"scalerank":10,"name":"Altdorf","pop_min":9,"pop_max":9,"adm0_a3":"CHE","ne_id":1159114659},"geometry":{"type":"Point","coordinates":[8.638003,46.879002]}},{"type":"Feature","properties":{"scalerank":10,"name":"Zug","pop_min":23,"pop_max":23,"adm0_a3":"CHE","ne_id":1159114687},"geometry":{"type":"Point","coordinates":[8.487001,47.178999]}},{"type":"Feature","properties":{"scalerank":10,"name":"Falun","pop_min":36,"pop_max":36,"adm0_a3":"SWE","ne_id":1159114705},"geometry":{"type":"Point","coordinates":[15.647005,60.613002]}},{"type":"Feature","properties":{"scalerank":10,"name":"Nyköping","pop_min":28,"pop_max":28,"adm0_a3":"SWE","ne_id":1159114723},"geometry":{"type":"Point","coordinates":[16.996082,58.75199]}},{"type":"Feature","properties":{"scalerank":10,"name":"Härnösand","pop_min":17,"pop_max":17,"adm0_a3":"SWE","ne_id":1159114733},"geometry":{"type":"Point","coordinates":[17.934004,62.633997]}},{"type":"Feature","properties":{"scalerank":10,"name":"Karlskrona","pop_min":35,"pop_max":35,"adm0_a3":"SWE","ne_id":1159114749},"geometry":{"type":"Point","coordinates":[15.590754,56.162781]}},{"type":"Feature","properties":{"scalerank":10,"name":"Alba Lulia","pop_min":66,"pop_max":66,"adm0_a3":"ROU","ne_id":1159114767},"geometry":{"type":"Point","coordinates":[23.580001,46.077003]}},{"type":"Feature","properties":{"scalerank":10,"name":"Bistrița","pop_min":81,"pop_max":81,"adm0_a3":"ROU","ne_id":1159114783},"geometry":{"type":"Point","coordinates":[24.513004,47.138004]}},{"type":"Feature","properties":{"scalerank":10,"name":"Deva","pop_min":68,"pop_max":68,"adm0_a3":"ROU","ne_id":1159114801},"geometry":{"type":"Point","coordinates":[22.916674,45.883323]}},{"type":"Feature","properties":{"scalerank":10,"name":"Zalău","pop_min":63,"pop_max":63,"adm0_a3":"ROU","ne_id":1159114819},"geometry":{"type":"Point","coordinates":[23.063005,47.175003]}},{"type":"Feature","properties":{"scalerank":10,"name":"Satu Mare","pop_min":112,"pop_max":112,"adm0_a3":"ROU","ne_id":1159114839},"geometry":{"type":"Point","coordinates":[22.885003,47.791998]}},{"type":"Feature","properties":{"scalerank":10,"name":"Rimnicu Vilcea","pop_min":108,"pop_max":108,"adm0_a3":"ROU","ne_id":1159114857},"geometry":{"type":"Point","coordinates":[24.382999,45.109998]}},{"type":"Feature","properties":{"scalerank":10,"name":"Sfintu-Gheorghe","pop_min":61,"pop_max":61,"adm0_a3":"ROU","ne_id":1159114867},"geometry":{"type":"Point","coordinates":[25.793002,45.867996]}},{"type":"Feature","properties":{"scalerank":10,"name":"Miercurea Cuic","pop_min":38,"pop_max":42,"adm0_a3":"ROU","ne_id":1159114889},"geometry":{"type":"Point","coordinates":[25.524001,46.360998]}},{"type":"Feature","properties":{"scalerank":10,"name":"Piatra-Neamt","pop_min":103,"pop_max":103,"adm0_a3":"ROU","ne_id":1159114907},"geometry":{"type":"Point","coordinates":[26.382997,46.940004]}},{"type":"Feature","properties":{"scalerank":10,"name":"Brăila","pop_min":214,"pop_max":214,"adm0_a3":"ROU","ne_id":1159114919},"geometry":{"type":"Point","coordinates":[27.969004,45.291996]}},{"type":"Feature","properties":{"scalerank":10,"name":"Vaslui","pop_min":69,"pop_max":69,"adm0_a3":"ROU","ne_id":1159114937},"geometry":{"type":"Point","coordinates":[27.733339,46.633329]}},{"type":"Feature","properties":{"scalerank":10,"name":"Salyan","pop_min":15,"pop_max":15,"adm0_a3":"NPL","ne_id":1159114955},"geometry":{"type":"Point","coordinates":[82.183303,28.35]}},{"type":"Feature","properties":{"scalerank":10,"name":"Mae Hong Son","pop_min":9,"pop_max":9,"adm0_a3":"THA","ne_id":1159114969},"geometry":{"type":"Point","coordinates":[97.968997,19.301004]}},{"type":"Feature","properties":{"scalerank":10,"name":"Phangnga","pop_min":10,"pop_max":10,"adm0_a3":"THA","ne_id":1159114987},"geometry":{"type":"Point","coordinates":[98.533999,8.451]}},{"type":"Feature","properties":{"scalerank":10,"name":"Ranong","pop_min":25,"pop_max":25,"adm0_a3":"THA","ne_id":1159115007},"geometry":{"type":"Point","coordinates":[98.638003,9.962001]}},{"type":"Feature","properties":{"scalerank":10,"name":"Krabi","pop_min":31,"pop_max":31,"adm0_a3":"THA","ne_id":1159115029},"geometry":{"type":"Point","coordinates":[98.911999,8.052003]}},{"type":"Feature","properties":{"scalerank":10,"name":"Phatthalung","pop_min":44,"pop_max":44,"adm0_a3":"THA","ne_id":1159115055},"geometry":{"type":"Point","coordinates":[100.081,7.614999]}},{"type":"Feature","properties":{"scalerank":10,"name":"Satun","pop_min":35,"pop_max":35,"adm0_a3":"THA","ne_id":1159115073},"geometry":{"type":"Point","coordinates":[100.066699,6.616701]}},{"type":"Feature","properties":{"scalerank":10,"name":"Lamphun","pop_min":14,"pop_max":14,"adm0_a3":"THA","ne_id":1159115095},"geometry":{"type":"Point","coordinates":[99.007052,18.573985]}},{"type":"Feature","properties":{"scalerank":10,"name":"Kamphaeng Phet","pop_min":59,"pop_max":59,"adm0_a3":"THA","ne_id":1159115115},"geometry":{"type":"Point","coordinates":[99.529003,16.472997]}},{"type":"Feature","properties":{"scalerank":10,"name":"Phichit","pop_min":36,"pop_max":36,"adm0_a3":"THA","ne_id":1159115131},"geometry":{"type":"Point","coordinates":[100.349002,16.439004]}},{"type":"Feature","properties":{"scalerank":10,"name":"Phetchabun","pop_min":51,"pop_max":51,"adm0_a3":"THA","ne_id":1159115143},"geometry":{"type":"Point","coordinates":[101.159002,16.418997]}},{"type":"Feature","properties":{"scalerank":10,"name":"Supham Buri","pop_min":53,"pop_max":53,"adm0_a3":"THA","ne_id":1159115163},"geometry":{"type":"Point","coordinates":[100.128997,14.471001]}},{"type":"Feature","properties":{"scalerank":10,"name":"Ang Thong","pop_min":14,"pop_max":14,"adm0_a3":"THA","ne_id":1159115183},"geometry":{"type":"Point","coordinates":[100.45,14.583303]}},{"type":"Feature","properties":{"scalerank":10,"name":"Chainat","pop_min":15,"pop_max":15,"adm0_a3":"THA","ne_id":1159115203},"geometry":{"type":"Point","coordinates":[100.126,15.179004]}},{"type":"Feature","properties":{"scalerank":10,"name":"Nakhon Nayok","pop_min":21,"pop_max":21,"adm0_a3":"THA","ne_id":1159115223},"geometry":{"type":"Point","coordinates":[101.215999,14.200002]}},{"type":"Feature","properties":{"scalerank":10,"name":"Sing Buri","pop_min":20,"pop_max":20,"adm0_a3":"THA","ne_id":1159115235},"geometry":{"type":"Point","coordinates":[100.401004,14.886999]}},{"type":"Feature","properties":{"scalerank":10,"name":"Nakhon Pathom","pop_min":118,"pop_max":118,"adm0_a3":"THA","ne_id":1159115261},"geometry":{"type":"Point","coordinates":[100.063999,13.817997]}},{"type":"Feature","properties":{"scalerank":10,"name":"Prachuap Khiri Khan","pop_min":34,"pop_max":34,"adm0_a3":"THA","ne_id":1159115287},"geometry":{"type":"Point","coordinates":[99.800002,11.802996]}},{"type":"Feature","properties":{"scalerank":10,"name":"Samut Sakhon","pop_min":63,"pop_max":63,"adm0_a3":"THA","ne_id":1159115295},"geometry":{"type":"Point","coordinates":[100.274005,13.536]}},{"type":"Feature","properties":{"scalerank":10,"name":"Samut Songkhram","pop_min":35,"pop_max":35,"adm0_a3":"THA","ne_id":1159115325},"geometry":{"type":"Point","coordinates":[100.000999,13.412997]}},{"type":"Feature","properties":{"scalerank":10,"name":"Yasothon","pop_min":22,"pop_max":22,"adm0_a3":"THA","ne_id":1159115345},"geometry":{"type":"Point","coordinates":[104.150998,15.787998]}},{"type":"Feature","properties":{"scalerank":10,"name":"Chachoengsao","pop_min":50,"pop_max":50,"adm0_a3":"THA","ne_id":1159115365},"geometry":{"type":"Point","coordinates":[101.076004,13.679001]}},{"type":"Feature","properties":{"scalerank":10,"name":"Trat","pop_min":22,"pop_max":22,"adm0_a3":"THA","ne_id":1159115385},"geometry":{"type":"Point","coordinates":[102.509002,12.237003]}},{"type":"Feature","properties":{"scalerank":10,"name":"Kalasin","pop_min":55,"pop_max":55,"adm0_a3":"THA","ne_id":1159115405},"geometry":{"type":"Point","coordinates":[103.509001,16.427997]}},{"type":"Feature","properties":{"scalerank":10,"name":"Maha Sarakham","pop_min":52,"pop_max":52,"adm0_a3":"THA","ne_id":1159115425},"geometry":{"type":"Point","coordinates":[103.298005,16.183998]}},{"type":"Feature","properties":{"scalerank":10,"name":"Roi Et","pop_min":39,"pop_max":39,"adm0_a3":"THA","ne_id":1159115449},"geometry":{"type":"Point","coordinates":[103.654999,16.050996]}},{"type":"Feature","properties":{"scalerank":10,"name":"Pattani","pop_min":44,"pop_max":150,"adm0_a3":"THA","ne_id":1159115473},"geometry":{"type":"Point","coordinates":[101.250001,6.864003]}},{"type":"Feature","properties":{"scalerank":10,"name":"Piggs Peak","pop_min":6,"pop_max":6,"adm0_a3":"SWZ","ne_id":1159115493},"geometry":{"type":"Point","coordinates":[31.247002,-25.961004]}},{"type":"Feature","properties":{"scalerank":10,"name":"Siteki","pop_min":6,"pop_max":6,"adm0_a3":"SWZ","ne_id":1159115523},"geometry":{"type":"Point","coordinates":[31.951999,-26.454996]}},{"type":"Feature","properties":{"scalerank":10,"name":"Manzini","pop_min":111,"pop_max":111,"adm0_a3":"SWZ","ne_id":1159115543},"geometry":{"type":"Point","coordinates":[31.388005,-26.495001]}},{"type":"Feature","properties":{"scalerank":10,"name":"Hlatikulu","pop_min":3,"pop_max":3,"adm0_a3":"SWZ","ne_id":1159115561},"geometry":{"type":"Point","coordinates":[31.310137,-26.960815]}},{"type":"Feature","properties":{"scalerank":10,"name":"Somoto","pop_min":20,"pop_max":20,"adm0_a3":"NIC","ne_id":1159115583},"geometry":{"type":"Point","coordinates":[-86.582997,13.475997]}},{"type":"Feature","properties":{"scalerank":10,"name":"Ocotal","pop_min":34,"pop_max":34,"adm0_a3":"NIC","ne_id":1159115603},"geometry":{"type":"Point","coordinates":[-86.472999,13.629996]}},{"type":"Feature","properties":{"scalerank":10,"name":"Aveiro","pop_min":54,"pop_max":54,"adm0_a3":"PRT","ne_id":1159115621},"geometry":{"type":"Point","coordinates":[-8.650997,40.641003]}},{"type":"Feature","properties":{"scalerank":10,"name":"Leiria","pop_min":45,"pop_max":45,"adm0_a3":"PRT","ne_id":1159115639},"geometry":{"type":"Point","coordinates":[-8.804996,39.738996]}},{"type":"Feature","properties":{"scalerank":10,"name":"Viana Do Castelo","pop_min":16,"pop_max":16,"adm0_a3":"PRT","ne_id":1159115665},"geometry":{"type":"Point","coordinates":[-8.844137,41.696235]}},{"type":"Feature","properties":{"scalerank":10,"name":"Mérida","pop_min":52,"pop_max":52,"adm0_a3":"ESP","ne_id":1159115685},"geometry":{"type":"Point","coordinates":[-6.337997,38.912004]}},{"type":"Feature","properties":{"scalerank":10,"name":"Beja","pop_min":22,"pop_max":36,"adm0_a3":"PRT","ne_id":1159115703},"geometry":{"type":"Point","coordinates":[-7.863002,38.014002]}},{"type":"Feature","properties":{"scalerank":10,"name":"Évora","pop_min":56,"pop_max":56,"adm0_a3":"PRT","ne_id":1159115725},"geometry":{"type":"Point","coordinates":[-7.905996,38.559996]}},{"type":"Feature","properties":{"scalerank":10,"name":"Portalegre","pop_min":16,"pop_max":16,"adm0_a3":"PRT","ne_id":1159115745},"geometry":{"type":"Point","coordinates":[-7.423001,39.290004]}},{"type":"Feature","properties":{"scalerank":10,"name":"Santarém","pop_min":29,"pop_max":29,"adm0_a3":"PRT","ne_id":1159115765},"geometry":{"type":"Point","coordinates":[-8.682003,39.231]}},{"type":"Feature","properties":{"scalerank":10,"name":"Bragança","pop_min":34,"pop_max":34,"adm0_a3":"PRT","ne_id":1159115789},"geometry":{"type":"Point","coordinates":[-6.755003,41.807997]}},{"type":"Feature","properties":{"scalerank":10,"name":"Castelo Branco","pop_min":33,"pop_max":33,"adm0_a3":"PRT","ne_id":1159115809},"geometry":{"type":"Point","coordinates":[-7.488,39.810996]}},{"type":"Feature","properties":{"scalerank":10,"name":"Guarda","pop_min":32,"pop_max":32,"adm0_a3":"PRT","ne_id":1159115829},"geometry":{"type":"Point","coordinates":[-7.262,40.541004]}},{"type":"Feature","properties":{"scalerank":10,"name":"Viseu","pop_min":26,"pop_max":26,"adm0_a3":"PRT","ne_id":1159115849},"geometry":{"type":"Point","coordinates":[-7.91,40.656996]}},{"type":"Feature","properties":{"scalerank":10,"name":"Vila Real","pop_min":17,"pop_max":17,"adm0_a3":"PRT","ne_id":1159115855},"geometry":{"type":"Point","coordinates":[-7.737002,41.293998]}},{"type":"Feature","properties":{"scalerank":10,"name":"Fatick","pop_min":24,"pop_max":24,"adm0_a3":"SEN","ne_id":1159115869},"geometry":{"type":"Point","coordinates":[-16.416,14.344002]}},{"type":"Feature","properties":{"scalerank":10,"name":"An Nabk","pop_min":5,"pop_max":10,"adm0_a3":"SAU","ne_id":1159115897},"geometry":{"type":"Point","coordinates":[37.333297,31.333302]}},{"type":"Feature","properties":{"scalerank":10,"name":"Assen","pop_min":62,"pop_max":62,"adm0_a3":"NLD","ne_id":1159115923},"geometry":{"type":"Point","coordinates":[6.550003,53.000001]}},{"type":"Feature","properties":{"scalerank":10,"name":"Arnhem","pop_min":142,"pop_max":142,"adm0_a3":"NLD","ne_id":1159115945},"geometry":{"type":"Point","coordinates":[5.923,51.987996]}},{"type":"Feature","properties":{"scalerank":10,"name":"Maastricht","pop_min":122,"pop_max":122,"adm0_a3":"NLD","ne_id":1159115953},"geometry":{"type":"Point","coordinates":[5.677003,50.852997]}},{"type":"Feature","properties":{"scalerank":10,"name":"Zwolle","pop_min":112,"pop_max":112,"adm0_a3":"NLD","ne_id":1159115983},"geometry":{"type":"Point","coordinates":[6.096997,52.524]}},{"type":"Feature","properties":{"scalerank":10,"name":"Middelburg","pop_min":46,"pop_max":46,"adm0_a3":"NLD","ne_id":1159116007},"geometry":{"type":"Point","coordinates":[3.61,51.501996]}},{"type":"Feature","properties":{"scalerank":10,"name":"'s-Hertogenbosch","pop_min":135,"pop_max":135,"adm0_a3":"NLD","ne_id":1159116023},"geometry":{"type":"Point","coordinates":[5.316661,51.683337]}},{"type":"Feature","properties":{"scalerank":10,"name":"Arendal","pop_min":31,"pop_max":31,"adm0_a3":"NOR","ne_id":1159116047},"geometry":{"type":"Point","coordinates":[8.766001,58.464756]}},{"type":"Feature","properties":{"scalerank":10,"name":"Vossavangen","pop_min":6,"pop_max":6,"adm0_a3":"NOR","ne_id":1159116055},"geometry":{"type":"Point","coordinates":[6.441004,60.630003]}},{"type":"Feature","properties":{"scalerank":10,"name":"Leikanger","pop_min":2,"pop_max":2,"adm0_a3":"NOR","ne_id":1159116077},"geometry":{"type":"Point","coordinates":[6.85,61.183296]}},{"type":"Feature","properties":{"scalerank":10,"name":"Bærum","pop_min":114,"pop_max":114,"adm0_a3":"NOR","ne_id":1159116103},"geometry":{"type":"Point","coordinates":[11.347237,59.913486]}},{"type":"Feature","properties":{"scalerank":10,"name":"Hamar","pop_min":29,"pop_max":29,"adm0_a3":"NOR","ne_id":1159116127},"geometry":{"type":"Point","coordinates":[11.069002,60.820002]}},{"type":"Feature","properties":{"scalerank":10,"name":"Tønsberg","pop_min":39,"pop_max":39,"adm0_a3":"NOR","ne_id":1159116137},"geometry":{"type":"Point","coordinates":[10.421002,59.264001]}},{"type":"Feature","properties":{"scalerank":10,"name":"Baglung","pop_min":23,"pop_max":23,"adm0_a3":"NPL","ne_id":1159116171},"geometry":{"type":"Point","coordinates":[83.583298,28.266696]}},{"type":"Feature","properties":{"scalerank":10,"name":"Jumla","pop_min":9,"pop_max":9,"adm0_a3":"NPL","ne_id":1159116187},"geometry":{"type":"Point","coordinates":[82.216702,29.25]}},{"type":"Feature","properties":{"scalerank":10,"name":"Bhairawa","pop_min":63,"pop_max":63,"adm0_a3":"NPL","ne_id":1159116209},"geometry":{"type":"Point","coordinates":[83.3833,27.533304]}},{"type":"Feature","properties":{"scalerank":10,"name":"Dandeldhura","pop_min":19,"pop_max":19,"adm0_a3":"NPL","ne_id":1159116225},"geometry":{"type":"Point","coordinates":[80.600005,29.300004]}},{"type":"Feature","properties":{"scalerank":10,"name":"Dhangarhi","pop_min":92,"pop_max":92,"adm0_a3":"NPL","ne_id":1159116251},"geometry":{"type":"Point","coordinates":[80.593003,28.694997]}},{"type":"Feature","properties":{"scalerank":10,"name":"Ramechhap","pop_min":15,"pop_max":15,"adm0_a3":"NPL","ne_id":1159116277},"geometry":{"type":"Point","coordinates":[86.086999,27.325998]}},{"type":"Feature","properties":{"scalerank":10,"name":"Bhimphedi","pop_min":15,"pop_max":15,"adm0_a3":"NPL","ne_id":1159116295},"geometry":{"type":"Point","coordinates":[85.130002,27.550998]}},{"type":"Feature","properties":{"scalerank":10,"name":"Rajbiraj","pop_min":33,"pop_max":33,"adm0_a3":"NPL","ne_id":1159116313},"geometry":{"type":"Point","coordinates":[86.733298,26.533296]}},{"type":"Feature","properties":{"scalerank":10,"name":"Ilam","pop_min":17,"pop_max":17,"adm0_a3":"NPL","ne_id":1159116339},"geometry":{"type":"Point","coordinates":[87.926005,26.908002]}},{"type":"Feature","properties":{"scalerank":10,"name":"Wabag","pop_min":4,"pop_max":4,"adm0_a3":"PNG","ne_id":1159116355},"geometry":{"type":"Point","coordinates":[143.718004,-5.49]}},{"type":"Feature","properties":{"scalerank":10,"name":"Vanimo","pop_min":11,"pop_max":11,"adm0_a3":"PNG","ne_id":1159116375},"geometry":{"type":"Point","coordinates":[141.303997,-2.690001]}},{"type":"Feature","properties":{"scalerank":10,"name":"Kundiawa","pop_min":9,"pop_max":9,"adm0_a3":"PNG","ne_id":1159116387},"geometry":{"type":"Point","coordinates":[144.960013,-6.022998]}},{"type":"Feature","properties":{"scalerank":10,"name":"Kerema","pop_min":6,"pop_max":6,"adm0_a3":"PNG","ne_id":1159116407},"geometry":{"type":"Point","coordinates":[145.837999,-7.927002]}},{"type":"Feature","properties":{"scalerank":10,"name":"Arawa","pop_min":40,"pop_max":40,"adm0_a3":"PNG","ne_id":1159116427},"geometry":{"type":"Point","coordinates":[155.565991,-6.228]}},{"type":"Feature","properties":{"scalerank":10,"name":"Lorengau","pop_min":6,"pop_max":6,"adm0_a3":"PNG","ne_id":1159116447},"geometry":{"type":"Point","coordinates":[147.279997,-2.032002]}},{"type":"Feature","properties":{"scalerank":10,"name":"Kimbe","pop_min":19,"pop_max":19,"adm0_a3":"PNG","ne_id":1159116467},"geometry":{"type":"Point","coordinates":[150.143014,-5.550003]}},{"type":"Feature","properties":{"scalerank":10,"name":"Dubăsari","pop_min":23,"pop_max":23,"adm0_a3":"MDA","ne_id":1159116487},"geometry":{"type":"Point","coordinates":[29.160833,47.263056]}},{"type":"Feature","properties":{"scalerank":10,"name":"Qacha's Nek","pop_min":26,"pop_max":26,"adm0_a3":"ZAF","ne_id":1159116505},"geometry":{"type":"Point","coordinates":[28.702,-30.117267]}},{"type":"Feature","properties":{"scalerank":10,"name":"Hudur","pop_min":2,"pop_max":2,"adm0_a3":"SOM","ne_id":1159116519},"geometry":{"type":"Point","coordinates":[43.866703,4.183299]}},{"type":"Feature","properties":{"scalerank":10,"name":"Garbahaarey","pop_min":13,"pop_max":13,"adm0_a3":"SOM","ne_id":1159116537},"geometry":{"type":"Point","coordinates":[42.227002,3.327003]}},{"type":"Feature","properties":{"scalerank":10,"name":"Bu'aale","pop_min":1,"pop_max":1,"adm0_a3":"SOM","ne_id":1159116563},"geometry":{"type":"Point","coordinates":[42.583303,1.083303]}},{"type":"Feature","properties":{"scalerank":10,"name":"Dhuusa Mareeb","pop_min":0,"pop_max":0,"adm0_a3":"SOM","ne_id":1159116581},"geometry":{"type":"Point","coordinates":[46.382174,5.531982]}},{"type":"Feature","properties":{"scalerank":10,"name":"Trincomalee","pop_min":108,"pop_max":108,"adm0_a3":"LKA","ne_id":1159116601},"geometry":{"type":"Point","coordinates":[81.233002,8.568999]}},{"type":"Feature","properties":{"scalerank":10,"name":"Puttalan","pop_min":46,"pop_max":46,"adm0_a3":"LKA","ne_id":1159116619},"geometry":{"type":"Point","coordinates":[79.826005,8.033004]}},{"type":"Feature","properties":{"scalerank":10,"name":"Ratnapura","pop_min":48,"pop_max":48,"adm0_a3":"LKA","ne_id":1159116631},"geometry":{"type":"Point","coordinates":[80.386003,6.693003]}},{"type":"Feature","properties":{"scalerank":10,"name":"Umuahia","pop_min":265,"pop_max":265,"adm0_a3":"NGA","ne_id":1159116649},"geometry":{"type":"Point","coordinates":[7.486003,5.532003]}},{"type":"Feature","properties":{"scalerank":10,"name":"Uyo","pop_min":437,"pop_max":555,"adm0_a3":"NGA","ne_id":1159116677},"geometry":{"type":"Point","coordinates":[7.916153,5.036014]}},{"type":"Feature","properties":{"scalerank":10,"name":"Owerri","pop_min":215,"pop_max":215,"adm0_a3":"NGA","ne_id":1159116695},"geometry":{"type":"Point","coordinates":[7.026004,5.492997]}},{"type":"Feature","properties":{"scalerank":10,"name":"Sariwon","pop_min":155,"pop_max":155,"adm0_a3":"PRK","ne_id":1159116707},"geometry":{"type":"Point","coordinates":[125.762005,38.507004]}},{"type":"Feature","properties":{"scalerank":10,"name":"Sin-Ni","pop_min":19,"pop_max":19,"adm0_a3":"PRK","ne_id":1159116729},"geometry":{"type":"Point","coordinates":[125.463997,39.488004]}},{"type":"Feature","properties":{"scalerank":10,"name":"Suchboatar","pop_min":24,"pop_max":24,"adm0_a3":"MNG","ne_id":1159116749},"geometry":{"type":"Point","coordinates":[106.200001,50.249997]}},{"type":"Feature","properties":{"scalerank":10,"name":"Dzuunmod","pop_min":18,"pop_max":18,"adm0_a3":"MNG","ne_id":1159116769},"geometry":{"type":"Point","coordinates":[106.947001,47.710998]}},{"type":"Feature","properties":{"scalerank":10,"name":"Omaruru","pop_min":12,"pop_max":12,"adm0_a3":"NAM","ne_id":1159116779},"geometry":{"type":"Point","coordinates":[15.950998,-21.436002]}},{"type":"Feature","properties":{"scalerank":10,"name":"Karibib","pop_min":7,"pop_max":7,"adm0_a3":"NAM","ne_id":1159116805},"geometry":{"type":"Point","coordinates":[15.852997,-21.939003]}},{"type":"Feature","properties":{"scalerank":10,"name":"Otavi","pop_min":5,"pop_max":5,"adm0_a3":"NAM","ne_id":1159116825},"geometry":{"type":"Point","coordinates":[17.342002,-19.639998]}},{"type":"Feature","properties":{"scalerank":10,"name":"Gobabis","pop_min":16,"pop_max":16,"adm0_a3":"NAM","ne_id":1159116843},"geometry":{"type":"Point","coordinates":[18.963001,-22.455]}},{"type":"Feature","properties":{"scalerank":10,"name":"Wete","pop_min":26,"pop_max":26,"adm0_a3":"TZA","ne_id":1159116863},"geometry":{"type":"Point","coordinates":[39.725799,-5.063464]}},{"type":"Feature","properties":{"scalerank":10,"name":"Kibaha","pop_min":24,"pop_max":24,"adm0_a3":"TZA","ne_id":1159116883},"geometry":{"type":"Point","coordinates":[38.916703,-6.766704]}},{"type":"Feature","properties":{"scalerank":10,"name":"Mkokotoni","pop_min":3,"pop_max":3,"adm0_a3":"TZA","ne_id":1159116901},"geometry":{"type":"Point","coordinates":[39.259999,-5.878998]}},{"type":"Feature","properties":{"scalerank":10,"name":"Fribourg","pop_min":33,"pop_max":33,"adm0_a3":"CHE","ne_id":1159116915},"geometry":{"type":"Point","coordinates":[7.149997,46.8]}},{"type":"Feature","properties":{"scalerank":10,"name":"Liestal","pop_min":13,"pop_max":13,"adm0_a3":"CHE","ne_id":1159116933},"geometry":{"type":"Point","coordinates":[7.737004,47.483001]}},{"type":"Feature","properties":{"scalerank":10,"name":"Solothurn","pop_min":15,"pop_max":15,"adm0_a3":"CHE","ne_id":1159116949},"geometry":{"type":"Point","coordinates":[7.536997,47.212002]}},{"type":"Feature","properties":{"scalerank":10,"name":"Sarnen","pop_min":9,"pop_max":9,"adm0_a3":"CHE","ne_id":1159116963},"geometry":{"type":"Point","coordinates":[8.243002,46.899]}},{"type":"Feature","properties":{"scalerank":10,"name":"Mariestad","pop_min":15,"pop_max":15,"adm0_a3":"SWE","ne_id":1159116987},"geometry":{"type":"Point","coordinates":[13.827997,58.705002]}},{"type":"Feature","properties":{"scalerank":10,"name":"Vannersborg","pop_min":22,"pop_max":22,"adm0_a3":"SWE","ne_id":1159117009},"geometry":{"type":"Point","coordinates":[12.330001,58.363002]}},{"type":"Feature","properties":{"scalerank":10,"name":"Appenzell","pop_min":6,"pop_max":6,"adm0_a3":"CHE","ne_id":1159117027},"geometry":{"type":"Point","coordinates":[9.416701,47.333304]}},{"type":"Feature","properties":{"scalerank":10,"name":"Ros Comain","pop_min":5,"pop_max":5,"adm0_a3":"IRL","ne_id":1159117035},"geometry":{"type":"Point","coordinates":[-8.183333,53.633333]}},{"type":"Feature","properties":{"scalerank":10,"name":"Cacheu","pop_min":10,"pop_max":10,"adm0_a3":"GNB","ne_id":1159117063},"geometry":{"type":"Point","coordinates":[-16.164998,12.268998]}},{"type":"Feature","properties":{"scalerank":10,"name":"Farim","pop_min":7,"pop_max":7,"adm0_a3":"GNB","ne_id":1159117087},"geometry":{"type":"Point","coordinates":[-15.227,12.492999]}},{"type":"Feature","properties":{"scalerank":10,"name":"Fulacunda","pop_min":1,"pop_max":1,"adm0_a3":"GNB","ne_id":1159117095},"geometry":{"type":"Point","coordinates":[-15.194996,11.772999]}},{"type":"Feature","properties":{"scalerank":10,"name":"Gabú","pop_min":14,"pop_max":14,"adm0_a3":"GNB","ne_id":1159117115},"geometry":{"type":"Point","coordinates":[-14.234003,12.279996]}},{"type":"Feature","properties":{"scalerank":10,"name":"Catió","pop_min":10,"pop_max":10,"adm0_a3":"GNB","ne_id":1159117133},"geometry":{"type":"Point","coordinates":[-15.254246,11.273036]}},{"type":"Feature","properties":{"scalerank":10,"name":"Barclayville","pop_min":3,"pop_max":3,"adm0_a3":"LBR","ne_id":1159117145},"geometry":{"type":"Point","coordinates":[-8.231595,4.674103]}},{"type":"Feature","properties":{"scalerank":10,"name":"Voinjama","pop_min":27,"pop_max":27,"adm0_a3":"LBR","ne_id":1159117163},"geometry":{"type":"Point","coordinates":[-9.749996,8.416701]}},{"type":"Feature","properties":{"scalerank":10,"name":"Bensonville","pop_min":4,"pop_max":4,"adm0_a3":"LBR","ne_id":1159117193},"geometry":{"type":"Point","coordinates":[-10.600001,6.433299]}},{"type":"Feature","properties":{"scalerank":10,"name":"Kakata","pop_min":34,"pop_max":34,"adm0_a3":"LBR","ne_id":1159117211},"geometry":{"type":"Point","coordinates":[-10.349,6.525999]}},{"type":"Feature","properties":{"scalerank":10,"name":"Sanniquellie","pop_min":11,"pop_max":11,"adm0_a3":"LBR","ne_id":1159117233},"geometry":{"type":"Point","coordinates":[-8.684999,7.371]}},{"type":"Feature","properties":{"scalerank":10,"name":"Rivercess","pop_min":3,"pop_max":3,"adm0_a3":"LBR","ne_id":1159117251},"geometry":{"type":"Point","coordinates":[-9.577997,5.464998]}},{"type":"Feature","properties":{"scalerank":10,"name":"Potenza","pop_min":69,"pop_max":69,"adm0_a3":"ITA","ne_id":1159117259},"geometry":{"type":"Point","coordinates":[15.798997,40.642002]}},{"type":"Feature","properties":{"scalerank":10,"name":"Campobasso","pop_min":51,"pop_max":51,"adm0_a3":"ITA","ne_id":1159117283},"geometry":{"type":"Point","coordinates":[14.655997,41.562999]}},{"type":"Feature","properties":{"scalerank":10,"name":"Al Mafraq","pop_min":57,"pop_max":57,"adm0_a3":"JOR","ne_id":1159117307},"geometry":{"type":"Point","coordinates":[36.233299,32.283297]}},{"type":"Feature","properties":{"scalerank":10,"name":"At Tafilah","pop_min":25,"pop_max":25,"adm0_a3":"JOR","ne_id":1159117321},"geometry":{"type":"Point","coordinates":[35.600005,30.833334]}},{"type":"Feature","properties":{"scalerank":10,"name":"Ma'an","pop_min":50,"pop_max":50,"adm0_a3":"JOR","ne_id":1159117345},"geometry":{"type":"Point","coordinates":[35.736004,30.192003]}},{"type":"Feature","properties":{"scalerank":10,"name":"Aosta","pop_min":34,"pop_max":34,"adm0_a3":"ITA","ne_id":1159117361},"geometry":{"type":"Point","coordinates":[7.315003,45.737001]}},{"type":"Feature","properties":{"scalerank":10,"name":"Diekirch","pop_min":6,"pop_max":6,"adm0_a3":"LUX","ne_id":1159117375},"geometry":{"type":"Point","coordinates":[6.166702,49.883301]}},{"type":"Feature","properties":{"scalerank":10,"name":"Grevenmacher","pop_min":4,"pop_max":4,"adm0_a3":"LUX","ne_id":1159117399},"geometry":{"type":"Point","coordinates":[6.425599,49.679753]}},{"type":"Feature","properties":{"scalerank":10,"name":"Kangar","pop_min":64,"pop_max":64,"adm0_a3":"MYS","ne_id":1159117415},"geometry":{"type":"Point","coordinates":[100.189999,6.433002]}},{"type":"Feature","properties":{"scalerank":10,"name":"Kuala Lipis","pop_min":15,"pop_max":15,"adm0_a3":"MYS","ne_id":1159117441},"geometry":{"type":"Point","coordinates":[102.042001,4.184001]}},{"type":"Feature","properties":{"scalerank":10,"name":"Shah Alam","pop_min":482,"pop_max":482,"adm0_a3":"MYS","ne_id":1159117459},"geometry":{"type":"Point","coordinates":[101.549998,3.066696]}},{"type":"Feature","properties":{"scalerank":10,"name":"Nyeri","pop_min":51,"pop_max":51,"adm0_a3":"KEN","ne_id":1159117473},"geometry":{"type":"Point","coordinates":[36.951004,-0.416997]}},{"type":"Feature","properties":{"scalerank":10,"name":"Teyateyaneng","pop_min":5,"pop_max":5,"adm0_a3":"LSO","ne_id":1159117491},"geometry":{"type":"Point","coordinates":[27.753004,-29.152998]}},{"type":"Feature","properties":{"scalerank":10,"name":"Mohales Hoek","pop_min":25,"pop_max":25,"adm0_a3":"LSO","ne_id":1159117509},"geometry":{"type":"Point","coordinates":[27.479998,-30.159]}},{"type":"Feature","properties":{"scalerank":10,"name":"Moyeni","pop_min":24,"pop_max":24,"adm0_a3":"LSO","ne_id":1159117539},"geometry":{"type":"Point","coordinates":[27.716005,-30.411]}},{"type":"Feature","properties":{"scalerank":10,"name":"Hlotse","pop_min":48,"pop_max":48,"adm0_a3":"LSO","ne_id":1159117545},"geometry":{"type":"Point","coordinates":[28.055998,-28.878003]}},{"type":"Feature","properties":{"scalerank":10,"name":"Butha-Buthe","pop_min":16,"pop_max":16,"adm0_a3":"LSO","ne_id":1159117565},"geometry":{"type":"Point","coordinates":[28.250002,-28.749996]}},{"type":"Feature","properties":{"scalerank":10,"name":"Mokhotlong","pop_min":9,"pop_max":9,"adm0_a3":"LSO","ne_id":1159117591},"geometry":{"type":"Point","coordinates":[29.078002,-29.291004]}},{"type":"Feature","properties":{"scalerank":10,"name":"Ahuachapán","pop_min":34,"pop_max":34,"adm0_a3":"SLV","ne_id":1159117611},"geometry":{"type":"Point","coordinates":[-89.845001,13.919004]}},{"type":"Feature","properties":{"scalerank":10,"name":"Cojutepeque","pop_min":48,"pop_max":48,"adm0_a3":"SLV","ne_id":1159117629},"geometry":{"type":"Point","coordinates":[-88.933302,13.716702]}},{"type":"Feature","properties":{"scalerank":10,"name":"Nueva San Salvador","pop_min":125,"pop_max":125,"adm0_a3":"SLV","ne_id":1159117637},"geometry":{"type":"Point","coordinates":[-89.289998,13.673997]}},{"type":"Feature","properties":{"scalerank":10,"name":"Zacatecoluca","pop_min":40,"pop_max":40,"adm0_a3":"SLV","ne_id":1159117657},"geometry":{"type":"Point","coordinates":[-88.867998,13.508001]}},{"type":"Feature","properties":{"scalerank":10,"name":"La Unión","pop_min":27,"pop_max":27,"adm0_a3":"SLV","ne_id":1159117687},"geometry":{"type":"Point","coordinates":[-87.839,13.331997]}},{"type":"Feature","properties":{"scalerank":10,"name":"San Francisco Gotera","pop_min":16,"pop_max":16,"adm0_a3":"SLV","ne_id":1159117693},"geometry":{"type":"Point","coordinates":[-88.1,13.699998]}},{"type":"Feature","properties":{"scalerank":10,"name":"San Vicente","pop_min":37,"pop_max":37,"adm0_a3":"SLV","ne_id":1159117711},"geometry":{"type":"Point","coordinates":[-88.785,13.641003]}},{"type":"Feature","properties":{"scalerank":10,"name":"Usulután","pop_min":52,"pop_max":52,"adm0_a3":"SLV","ne_id":1159117729},"geometry":{"type":"Point","coordinates":[-88.432002,13.346001]}},{"type":"Feature","properties":{"scalerank":10,"name":"Chalatenango","pop_min":29,"pop_max":29,"adm0_a3":"SLV","ne_id":1159117743},"geometry":{"type":"Point","coordinates":[-88.906737,14.009527]}},{"type":"Feature","properties":{"scalerank":10,"name":"Lucea","pop_min":6,"pop_max":6,"adm0_a3":"JAM","ne_id":1159117759},"geometry":{"type":"Point","coordinates":[-78.179004,18.442998]}},{"type":"Feature","properties":{"scalerank":10,"name":"Mandeville","pop_min":47,"pop_max":47,"adm0_a3":"JAM","ne_id":1159117775},"geometry":{"type":"Point","coordinates":[-77.499998,18.033003]}},{"type":"Feature","properties":{"scalerank":10,"name":"Black River","pop_min":4,"pop_max":4,"adm0_a3":"JAM","ne_id":1159117791},"geometry":{"type":"Point","coordinates":[-77.851997,18.030996]}},{"type":"Feature","properties":{"scalerank":10,"name":"Falmouth","pop_min":8,"pop_max":8,"adm0_a3":"JAM","ne_id":1159117809},"geometry":{"type":"Point","coordinates":[-77.65605,18.479583]}},{"type":"Feature","properties":{"scalerank":10,"name":"Savanna-la-Mar","pop_min":21,"pop_max":30,"adm0_a3":"JAM","ne_id":1159117825},"geometry":{"type":"Point","coordinates":[-77.948,18.163998]}},{"type":"Feature","properties":{"scalerank":10,"name":"Port Antonio","pop_min":14,"pop_max":14,"adm0_a3":"JAM","ne_id":1159117841},"geometry":{"type":"Point","coordinates":[-76.380003,18.159003]}},{"type":"Feature","properties":{"scalerank":10,"name":"Saint Ann's Bay","pop_min":14,"pop_max":14,"adm0_a3":"JAM","ne_id":1159117855},"geometry":{"type":"Point","coordinates":[-77.199524,18.432639]}},{"type":"Feature","properties":{"scalerank":10,"name":"Port Maria","pop_min":8,"pop_max":8,"adm0_a3":"JAM","ne_id":1159117871},"geometry":{"type":"Point","coordinates":[-76.899995,18.377001]}},{"type":"Feature","properties":{"scalerank":10,"name":"Half Way Tree","pop_min":96,"pop_max":96,"adm0_a3":"JAM","ne_id":1159117887},"geometry":{"type":"Point","coordinates":[-76.799996,18.0333]}},{"type":"Feature","properties":{"scalerank":10,"name":"Port Morant","pop_min":12,"pop_max":12,"adm0_a3":"JAM","ne_id":1159117905},"geometry":{"type":"Point","coordinates":[-76.329,17.891001]}},{"type":"Feature","properties":{"scalerank":10,"name":"Sabaneta","pop_min":16,"pop_max":16,"adm0_a3":"DOM","ne_id":1159117927},"geometry":{"type":"Point","coordinates":[-71.344988,19.504998]}},{"type":"Feature","properties":{"scalerank":10,"name":"Mao","pop_min":48,"pop_max":48,"adm0_a3":"DOM","ne_id":1159117953},"geometry":{"type":"Point","coordinates":[-71.074997,19.551996]}},{"type":"Feature","properties":{"scalerank":10,"name":"Cotuí","pop_min":42,"pop_max":42,"adm0_a3":"DOM","ne_id":1159117969},"geometry":{"type":"Point","coordinates":[-70.152003,19.059003]}},{"type":"Feature","properties":{"scalerank":10,"name":"Evinayong","pop_min":8,"pop_max":8,"adm0_a3":"GNQ","ne_id":1159117991},"geometry":{"type":"Point","coordinates":[10.566703,1.449999]}},{"type":"Feature","properties":{"scalerank":10,"name":"Luba","pop_min":9,"pop_max":9,"adm0_a3":"GNQ","ne_id":1159118007},"geometry":{"type":"Point","coordinates":[8.550001,3.449997]}},{"type":"Feature","properties":{"scalerank":10,"name":"Šibenik","pop_min":37,"pop_max":37,"adm0_a3":"HRV","ne_id":1159118027},"geometry":{"type":"Point","coordinates":[15.905833,43.727222]}},{"type":"Feature","properties":{"scalerank":10,"name":"Shibin el Kom","pop_min":183,"pop_max":183,"adm0_a3":"EGY","ne_id":1159118087},"geometry":{"type":"Point","coordinates":[31.006953,30.554482]}},{"type":"Feature","properties":{"scalerank":10,"name":"Benha","pop_min":167,"pop_max":167,"adm0_a3":"EGY","ne_id":1159118097},"geometry":{"type":"Point","coordinates":[31.183336,30.466665]}},{"type":"Feature","properties":{"scalerank":10,"name":"Zagazig","pop_min":285,"pop_max":285,"adm0_a3":"EGY","ne_id":1159118123},"geometry":{"type":"Point","coordinates":[31.51666,30.583332]}},{"type":"Feature","properties":{"scalerank":10,"name":"Kafr el Sheikh","pop_min":144,"pop_max":144,"adm0_a3":"EGY","ne_id":1159118131},"geometry":{"type":"Point","coordinates":[30.935998,31.109004]}},{"type":"Feature","properties":{"scalerank":10,"name":"Dikhil","pop_min":12,"pop_max":12,"adm0_a3":"DJI","ne_id":1159118161},"geometry":{"type":"Point","coordinates":[42.372001,11.104002]}},{"type":"Feature","properties":{"scalerank":10,"name":"Tadjoura","pop_min":22,"pop_max":22,"adm0_a3":"DJI","ne_id":1159118179},"geometry":{"type":"Point","coordinates":[42.900004,11.783304]}},{"type":"Feature","properties":{"scalerank":10,"name":"Haapsalu","pop_min":12,"pop_max":12,"adm0_a3":"EST","ne_id":1159118197},"geometry":{"type":"Point","coordinates":[23.541389,58.943056]}},{"type":"Feature","properties":{"scalerank":10,"name":"Hawalli","pop_min":164,"pop_max":164,"adm0_a3":"KWT","ne_id":1159118215},"geometry":{"type":"Point","coordinates":[47.999998,29.33334]}},{"type":"Feature","properties":{"scalerank":10,"name":"Buluko","pop_min":1,"pop_max":1,"adm0_a3":"COD","ne_id":1159118229},"geometry":{"type":"Point","coordinates":[28.528003,-0.756999]}},{"type":"Feature","properties":{"scalerank":10,"name":"Mzimba","pop_min":19,"pop_max":19,"adm0_a3":"MWI","ne_id":1159118249},"geometry":{"type":"Point","coordinates":[33.6,-11.9]}},{"type":"Feature","properties":{"scalerank":10,"name":"Machinga","pop_min":1,"pop_max":1,"adm0_a3":"MWI","ne_id":1159118269},"geometry":{"type":"Point","coordinates":[35.301665,-15.176186]}},{"type":"Feature","properties":{"scalerank":10,"name":"Dedza","pop_min":16,"pop_max":16,"adm0_a3":"MWI","ne_id":1159118287},"geometry":{"type":"Point","coordinates":[34.333333,-14.366667]}},{"type":"Feature","properties":{"scalerank":10,"name":"Mchinji","pop_min":18,"pop_max":18,"adm0_a3":"MWI","ne_id":1159118305},"geometry":{"type":"Point","coordinates":[32.9,-13.8]}},{"type":"Feature","properties":{"scalerank":10,"name":"Ntcheu","pop_min":10,"pop_max":10,"adm0_a3":"MWI","ne_id":1159118323},"geometry":{"type":"Point","coordinates":[34.633333,-14.816667]}},{"type":"Feature","properties":{"scalerank":10,"name":"Chiradzulu","pop_min":2,"pop_max":2,"adm0_a3":"MWI","ne_id":1159118337},"geometry":{"type":"Point","coordinates":[35.183333,-15.7]}},{"type":"Feature","properties":{"scalerank":10,"name":"Nsanje","pop_min":22,"pop_max":22,"adm0_a3":"MWI","ne_id":1159118357},"geometry":{"type":"Point","coordinates":[35.266667,-16.916667]}},{"type":"Feature","properties":{"scalerank":10,"name":"Mwanza","pop_min":11,"pop_max":11,"adm0_a3":"MWI","ne_id":1159118375},"geometry":{"type":"Point","coordinates":[34.516667,-15.616667]}},{"type":"Feature","properties":{"scalerank":10,"name":"Mulanje","pop_min":16,"pop_max":16,"adm0_a3":"MWI","ne_id":1159118389},"geometry":{"type":"Point","coordinates":[35.5,-16.033333]}},{"type":"Feature","properties":{"scalerank":10,"name":"Salamá","pop_min":40,"pop_max":40,"adm0_a3":"GTM","ne_id":1159118411},"geometry":{"type":"Point","coordinates":[-90.314001,15.102999]}},{"type":"Feature","properties":{"scalerank":10,"name":"Retalhuleu","pop_min":37,"pop_max":37,"adm0_a3":"GTM","ne_id":1159118429},"geometry":{"type":"Point","coordinates":[-91.677014,14.537097]}},{"type":"Feature","properties":{"scalerank":10,"name":"San Marcos","pop_min":25,"pop_max":25,"adm0_a3":"GTM","ne_id":1159118447},"geometry":{"type":"Point","coordinates":[-91.799999,14.966001]}},{"type":"Feature","properties":{"scalerank":10,"name":"Chimaltenango","pop_min":82,"pop_max":82,"adm0_a3":"GTM","ne_id":1159118467},"geometry":{"type":"Point","coordinates":[-90.819998,14.661999]}},{"type":"Feature","properties":{"scalerank":10,"name":"Antigua Guatemala","pop_min":39,"pop_max":39,"adm0_a3":"GTM","ne_id":1159118485},"geometry":{"type":"Point","coordinates":[-90.733302,14.566698]}},{"type":"Feature","properties":{"scalerank":10,"name":"Sololá","pop_min":45,"pop_max":45,"adm0_a3":"GTM","ne_id":1159118501},"geometry":{"type":"Point","coordinates":[-91.182995,14.772996]}},{"type":"Feature","properties":{"scalerank":10,"name":"Totonicapán","pop_min":70,"pop_max":70,"adm0_a3":"GTM","ne_id":1159118521},"geometry":{"type":"Point","coordinates":[-91.358001,14.913999]}},{"type":"Feature","properties":{"scalerank":10,"name":"El Progreso","pop_min":147,"pop_max":147,"adm0_a3":"GTM","ne_id":1159118531},"geometry":{"type":"Point","coordinates":[-90.016208,14.922294]}},{"type":"Feature","properties":{"scalerank":10,"name":"Cuilapa","pop_min":16,"pop_max":16,"adm0_a3":"GTM","ne_id":1159118557},"geometry":{"type":"Point","coordinates":[-90.297998,14.279004]}},{"type":"Feature","properties":{"scalerank":10,"name":"Chiquimula","pop_min":42,"pop_max":42,"adm0_a3":"GTM","ne_id":1159118571},"geometry":{"type":"Point","coordinates":[-89.543996,14.796999]}},{"type":"Feature","properties":{"scalerank":10,"name":"Jalapa","pop_min":46,"pop_max":46,"adm0_a3":"GTM","ne_id":1159118593},"geometry":{"type":"Point","coordinates":[-89.989002,14.633001]}},{"type":"Feature","properties":{"scalerank":10,"name":"Zacapa","pop_min":36,"pop_max":36,"adm0_a3":"GTM","ne_id":1159118607},"geometry":{"type":"Point","coordinates":[-89.529003,14.972004]}},{"type":"Feature","properties":{"scalerank":10,"name":"Puerto Plata","pop_min":120,"pop_max":120,"adm0_a3":"DOM","ne_id":1159118621},"geometry":{"type":"Point","coordinates":[-70.690247,19.790217]}},{"type":"Feature","properties":{"scalerank":10,"name":"Dajabón","pop_min":16,"pop_max":16,"adm0_a3":"DOM","ne_id":1159118639},"geometry":{"type":"Point","coordinates":[-71.704998,19.548]}},{"type":"Feature","properties":{"scalerank":10,"name":"Moca","pop_min":62,"pop_max":62,"adm0_a3":"DOM","ne_id":1159118655},"geometry":{"type":"Point","coordinates":[-70.523001,19.396998]}},{"type":"Feature","properties":{"scalerank":10,"name":"Salcedo","pop_min":45,"pop_max":45,"adm0_a3":"DOM","ne_id":1159118673},"geometry":{"type":"Point","coordinates":[-70.416701,19.383003]}},{"type":"Feature","properties":{"scalerank":10,"name":"Jimaní","pop_min":7,"pop_max":7,"adm0_a3":"DOM","ne_id":1159118691},"geometry":{"type":"Point","coordinates":[-71.850995,18.493002]}},{"type":"Feature","properties":{"scalerank":10,"name":"Comendador","pop_min":28,"pop_max":44,"adm0_a3":"DOM","ne_id":1159118711},"geometry":{"type":"Point","coordinates":[-71.706995,18.875997]}},{"type":"Feature","properties":{"scalerank":10,"name":"Pedernales","pop_min":11,"pop_max":11,"adm0_a3":"DOM","ne_id":1159118729},"geometry":{"type":"Point","coordinates":[-71.740998,18.037998]}},{"type":"Feature","properties":{"scalerank":10,"name":"Azua","pop_min":59,"pop_max":59,"adm0_a3":"DOM","ne_id":1159118747},"geometry":{"type":"Point","coordinates":[-70.729002,18.453996]}},{"type":"Feature","properties":{"scalerank":10,"name":"Bonao","pop_min":73,"pop_max":73,"adm0_a3":"DOM","ne_id":1159118765},"geometry":{"type":"Point","coordinates":[-70.408998,18.942003]}},{"type":"Feature","properties":{"scalerank":10,"name":"Baní","pop_min":67,"pop_max":67,"adm0_a3":"DOM","ne_id":1159118785},"geometry":{"type":"Point","coordinates":[-70.331003,18.279999]}},{"type":"Feature","properties":{"scalerank":10,"name":"Hato Mayor","pop_min":36,"pop_max":36,"adm0_a3":"DOM","ne_id":1159118801},"geometry":{"type":"Point","coordinates":[-69.256997,18.764001]}},{"type":"Feature","properties":{"scalerank":10,"name":"Monte Plata","pop_min":16,"pop_max":16,"adm0_a3":"DOM","ne_id":1159118825},"geometry":{"type":"Point","coordinates":[-69.784001,18.807003]}},{"type":"Feature","properties":{"scalerank":10,"name":"Nagua","pop_min":34,"pop_max":34,"adm0_a3":"DOM","ne_id":1159118841},"geometry":{"type":"Point","coordinates":[-69.847001,19.376001]}},{"type":"Feature","properties":{"scalerank":10,"name":"Samaná","pop_min":11,"pop_max":11,"adm0_a3":"DOM","ne_id":1159118863},"geometry":{"type":"Point","coordinates":[-69.332004,19.212003]}},{"type":"Feature","properties":{"scalerank":10,"name":"San Cristóbal","pop_min":154,"pop_max":154,"adm0_a3":"DOM","ne_id":1159118885},"geometry":{"type":"Point","coordinates":[-70.109,18.415998]}},{"type":"Feature","properties":{"scalerank":10,"name":"El Seibo","pop_min":24,"pop_max":24,"adm0_a3":"DOM","ne_id":1159118907},"geometry":{"type":"Point","coordinates":[-69.035003,18.764001]}},{"type":"Feature","properties":{"scalerank":10,"name":"Higuey","pop_min":124,"pop_max":124,"adm0_a3":"DOM","ne_id":1159118923},"geometry":{"type":"Point","coordinates":[-68.707997,18.615996]}},{"type":"Feature","properties":{"scalerank":10,"name":"Georgetown","pop_min":4,"pop_max":4,"adm0_a3":"GMB","ne_id":1159118935},"geometry":{"type":"Point","coordinates":[-14.767001,13.551003]}},{"type":"Feature","properties":{"scalerank":10,"name":"Basse Santa Su","pop_min":14,"pop_max":14,"adm0_a3":"GMB","ne_id":1159118951},"geometry":{"type":"Point","coordinates":[-14.222996,13.310001]}},{"type":"Feature","properties":{"scalerank":10,"name":"Kerewan","pop_min":3,"pop_max":3,"adm0_a3":"GMB","ne_id":1159118969},"geometry":{"type":"Point","coordinates":[-16.094996,13.493997]}},{"type":"Feature","properties":{"scalerank":10,"name":"Mansa Konko","pop_min":19,"pop_max":19,"adm0_a3":"GMB","ne_id":1159118993},"geometry":{"type":"Point","coordinates":[-15.543324,13.454894]}},{"type":"Feature","properties":{"scalerank":10,"name":"Sunyani","pop_min":70,"pop_max":70,"adm0_a3":"GHA","ne_id":1159119007},"geometry":{"type":"Point","coordinates":[-2.336003,7.335999]}},{"type":"Feature","properties":{"scalerank":10,"name":"Ebebiyín","pop_min":25,"pop_max":25,"adm0_a3":"GAB","ne_id":1159119035},"geometry":{"type":"Point","coordinates":[11.330002,2.152998]}},{"type":"Feature","properties":{"scalerank":10,"name":"Viljandi","pop_min":20,"pop_max":20,"adm0_a3":"EST","ne_id":1159119053},"geometry":{"type":"Point","coordinates":[25.59,58.363889]}},{"type":"Feature","properties":{"scalerank":10,"name":"Tchibanga","pop_min":19,"pop_max":19,"adm0_a3":"GAB","ne_id":1159119065},"geometry":{"type":"Point","coordinates":[10.997289,-2.921483]}},{"type":"Feature","properties":{"scalerank":10,"name":"Madingou","pop_min":23,"pop_max":23,"adm0_a3":"COG","ne_id":1159119097},"geometry":{"type":"Point","coordinates":[13.554001,-4.164003]}},{"type":"Feature","properties":{"scalerank":10,"name":"Lamia","pop_min":47,"pop_max":47,"adm0_a3":"GRC","ne_id":1159119107},"geometry":{"type":"Point","coordinates":[22.434004,38.898999]}},{"type":"Feature","properties":{"scalerank":10,"name":"Polygyros","pop_min":5,"pop_max":5,"adm0_a3":"GRC","ne_id":1159119133},"geometry":{"type":"Point","coordinates":[23.453002,40.381002]}},{"type":"Feature","properties":{"scalerank":10,"name":"Komatini","pop_min":46,"pop_max":46,"adm0_a3":"GRC","ne_id":1159119151},"geometry":{"type":"Point","coordinates":[25.416703,41.133303]}},{"type":"Feature","properties":{"scalerank":10,"name":"B'abda","pop_min":9,"pop_max":9,"adm0_a3":"LBN","ne_id":1159119175},"geometry":{"type":"Point","coordinates":[35.533297,33.833304]}},{"type":"Feature","properties":{"scalerank":10,"name":"Ramla","pop_min":64,"pop_max":64,"adm0_a3":"ISR","ne_id":1159119203},"geometry":{"type":"Point","coordinates":[34.866703,31.9167]}},{"type":"Feature","properties":{"scalerank":10,"name":"Nabatiye et Tahta","pop_min":40,"pop_max":80,"adm0_a3":"LBN","ne_id":1159119221},"geometry":{"type":"Point","coordinates":[35.450002,33.383304]}},{"type":"Feature","properties":{"scalerank":10,"name":"Mariehamn","pop_min":11,"pop_max":11,"adm0_a3":"ALD","ne_id":1159119239},"geometry":{"type":"Point","coordinates":[19.949005,60.096996]}},{"type":"Feature","properties":{"scalerank":10,"name":"Hämeenlinna","pop_min":47,"pop_max":47,"adm0_a3":"FIN","ne_id":1159119251},"geometry":{"type":"Point","coordinates":[24.472,60.996996]}},{"type":"Feature","properties":{"scalerank":10,"name":"Kouvola","pop_min":31,"pop_max":31,"adm0_a3":"FIN","ne_id":1159119269},"geometry":{"type":"Point","coordinates":[26.709004,60.876]}},{"type":"Feature","properties":{"scalerank":10,"name":"Mikkeli","pop_min":47,"pop_max":47,"adm0_a3":"FIN","ne_id":1159119287},"geometry":{"type":"Point","coordinates":[27.285004,61.689996]}},{"type":"Feature","properties":{"scalerank":10,"name":"Ban Houayxay","pop_min":6,"pop_max":6,"adm0_a3":"LAO","ne_id":1159119305},"geometry":{"type":"Point","coordinates":[100.412778,20.2775]}},{"type":"Feature","properties":{"scalerank":10,"name":"Louang Namtha","pop_min":3,"pop_max":3,"adm0_a3":"LAO","ne_id":1159119325},"geometry":{"type":"Point","coordinates":[101.416699,20.950002]}},{"type":"Feature","properties":{"scalerank":10,"name":"Champasak","pop_min":13,"pop_max":13,"adm0_a3":"LAO","ne_id":1159119355},"geometry":{"type":"Point","coordinates":[105.866704,14.8833]}},{"type":"Feature","properties":{"scalerank":10,"name":"Saravan","pop_min":6,"pop_max":6,"adm0_a3":"LAO","ne_id":1159119363},"geometry":{"type":"Point","coordinates":[106.426999,15.715998]}},{"type":"Feature","properties":{"scalerank":10,"name":"Xam Nua","pop_min":39,"pop_max":39,"adm0_a3":"LAO","ne_id":1159119393},"geometry":{"type":"Point","coordinates":[104.033305,20.416698]}},{"type":"Feature","properties":{"scalerank":10,"name":"Phongsali","pop_min":6,"pop_max":6,"adm0_a3":"LAO","ne_id":1159119411},"geometry":{"type":"Point","coordinates":[102.099997,21.683304]}},{"type":"Feature","properties":{"scalerank":10,"name":"Attapu","pop_min":4,"pop_max":4,"adm0_a3":"LAO","ne_id":1159119427},"geometry":{"type":"Point","coordinates":[106.839001,14.807997]}},{"type":"Feature","properties":{"scalerank":10,"name":"Kinkala","pop_min":14,"pop_max":14,"adm0_a3":"COG","ne_id":1159119445},"geometry":{"type":"Point","coordinates":[14.761999,-4.356]}},{"type":"Feature","properties":{"scalerank":10,"name":"Muineachan","pop_min":6,"pop_max":6,"adm0_a3":"IRL","ne_id":1159119463},"geometry":{"type":"Point","coordinates":[-6.966667,54.25]}},{"type":"Feature","properties":{"scalerank":10,"name":"Vejle","pop_min":51,"pop_max":51,"adm0_a3":"DNK","ne_id":1159119483},"geometry":{"type":"Point","coordinates":[9.534997,55.709001]}},{"type":"Feature","properties":{"scalerank":10,"name":"Hillerød","pop_min":28,"pop_max":28,"adm0_a3":"DNK","ne_id":1159119497},"geometry":{"type":"Point","coordinates":[12.316699,55.933299]}},{"type":"Feature","properties":{"scalerank":10,"name":"Sorø","pop_min":7,"pop_max":7,"adm0_a3":"DNK","ne_id":1159119505},"geometry":{"type":"Point","coordinates":[11.566702,55.432998]}},{"type":"Feature","properties":{"scalerank":10,"name":"Mali","pop_min":5,"pop_max":5,"adm0_a3":"GIN","ne_id":1159119537},"geometry":{"type":"Point","coordinates":[-12.301001,12.084003]}},{"type":"Feature","properties":{"scalerank":10,"name":"Tongue","pop_min":26,"pop_max":26,"adm0_a3":"GIN","ne_id":1159119553},"geometry":{"type":"Point","coordinates":[-11.670002,11.439999]}},{"type":"Feature","properties":{"scalerank":10,"name":"Kouroussa","pop_min":14,"pop_max":14,"adm0_a3":"GIN","ne_id":1159119571},"geometry":{"type":"Point","coordinates":[-9.891998,10.653003]}},{"type":"Feature","properties":{"scalerank":10,"name":"Pita","pop_min":20,"pop_max":20,"adm0_a3":"GIN","ne_id":1159119589},"geometry":{"type":"Point","coordinates":[-12.401001,11.079999]}},{"type":"Feature","properties":{"scalerank":10,"name":"Dalaba","pop_min":6,"pop_max":6,"adm0_a3":"GIN","ne_id":1159119601},"geometry":{"type":"Point","coordinates":[-12.272004,10.656]}},{"type":"Feature","properties":{"scalerank":10,"name":"Boffa","pop_min":2,"pop_max":2,"adm0_a3":"GIN","ne_id":1159119617},"geometry":{"type":"Point","coordinates":[-14.042996,10.185003]}},{"type":"Feature","properties":{"scalerank":10,"name":"Koundara","pop_min":14,"pop_max":14,"adm0_a3":"GIN","ne_id":1159119637},"geometry":{"type":"Point","coordinates":[-13.295996,12.480003]}},{"type":"Feature","properties":{"scalerank":10,"name":"Gaoual","pop_min":7,"pop_max":7,"adm0_a3":"GIN","ne_id":1159119665},"geometry":{"type":"Point","coordinates":[-13.212998,11.754]}},{"type":"Feature","properties":{"scalerank":10,"name":"Télimélé","pop_min":30,"pop_max":30,"adm0_a3":"GIN","ne_id":1159119683},"geometry":{"type":"Point","coordinates":[-13.042998,10.905003]}},{"type":"Feature","properties":{"scalerank":10,"name":"Forecariah","pop_min":12,"pop_max":12,"adm0_a3":"GIN","ne_id":1159119699},"geometry":{"type":"Point","coordinates":[-13.097997,9.430002]}},{"type":"Feature","properties":{"scalerank":10,"name":"Beyla","pop_min":13,"pop_max":13,"adm0_a3":"GIN","ne_id":1159119717},"geometry":{"type":"Point","coordinates":[-8.657,8.686998]}},{"type":"Feature","properties":{"scalerank":10,"name":"Gueckedou","pop_min":222,"pop_max":222,"adm0_a3":"GIN","ne_id":1159119737},"geometry":{"type":"Point","coordinates":[-10.151,8.553996]}},{"type":"Feature","properties":{"scalerank":10,"name":"Dinguiraye","pop_min":6,"pop_max":6,"adm0_a3":"GIN","ne_id":1159119755},"geometry":{"type":"Point","coordinates":[-10.726001,11.298996]}},{"type":"Feature","properties":{"scalerank":10,"name":"Dabola","pop_min":13,"pop_max":13,"adm0_a3":"GIN","ne_id":1159119773},"geometry":{"type":"Point","coordinates":[-11.108996,10.747998]}},{"type":"Feature","properties":{"scalerank":10,"name":"Touba","pop_min":28,"pop_max":28,"adm0_a3":"CIV","ne_id":1159119785},"geometry":{"type":"Point","coordinates":[-7.684001,8.28]}},{"type":"Feature","properties":{"scalerank":10,"name":"Bouaflé","pop_min":61,"pop_max":61,"adm0_a3":"CIV","ne_id":1159119809},"geometry":{"type":"Point","coordinates":[-5.748002,6.977997]}},{"type":"Feature","properties":{"scalerank":10,"name":"Divo","pop_min":128,"pop_max":128,"adm0_a3":"CIV","ne_id":1159119825},"geometry":{"type":"Point","coordinates":[-5.360003,5.839002]}},{"type":"Feature","properties":{"scalerank":10,"name":"Toumodi","pop_min":39,"pop_max":39,"adm0_a3":"CIV","ne_id":1159119843},"geometry":{"type":"Point","coordinates":[-5.019002,6.552]}},{"type":"Feature","properties":{"scalerank":10,"name":"Aboisso","pop_min":38,"pop_max":38,"adm0_a3":"CIV","ne_id":1159119863},"geometry":{"type":"Point","coordinates":[-3.200003,5.466699]}},{"type":"Feature","properties":{"scalerank":10,"name":"Santa Cruz Del Quiche","pop_min":24,"pop_max":24,"adm0_a3":"GTM","ne_id":1159119879},"geometry":{"type":"Point","coordinates":[-91.133298,15.033303]}},{"type":"Feature","properties":{"scalerank":10,"name":"Buea","pop_min":90,"pop_max":90,"adm0_a3":"CMR","ne_id":1159119899},"geometry":{"type":"Point","coordinates":[9.231004,4.155003]}},{"type":"Feature","properties":{"scalerank":10,"name":"Krujë","pop_min":21,"pop_max":21,"adm0_a3":"ALB","ne_id":1159119919},"geometry":{"type":"Point","coordinates":[19.797004,41.518998]}},{"type":"Feature","properties":{"scalerank":10,"name":"Fier","pop_min":57,"pop_max":82,"adm0_a3":"ALB","ne_id":1159119937},"geometry":{"type":"Point","coordinates":[19.573003,40.730004]}},{"type":"Feature","properties":{"scalerank":10,"name":"Lushnjë","pop_min":41,"pop_max":41,"adm0_a3":"ALB","ne_id":1159119955},"geometry":{"type":"Point","coordinates":[19.716004,40.940001]}},{"type":"Feature","properties":{"scalerank":10,"name":"Pukë","pop_min":6,"pop_max":6,"adm0_a3":"ALB","ne_id":1159119975},"geometry":{"type":"Point","coordinates":[19.883305,42.033303]}},{"type":"Feature","properties":{"scalerank":10,"name":"Bajram Curri","pop_min":8,"pop_max":8,"adm0_a3":"ALB","ne_id":1159119991},"geometry":{"type":"Point","coordinates":[20.083303,42.3333]}},{"type":"Feature","properties":{"scalerank":10,"name":"Kukës","pop_min":18,"pop_max":18,"adm0_a3":"ALB","ne_id":1159120009},"geometry":{"type":"Point","coordinates":[20.433997,42.083001]}},{"type":"Feature","properties":{"scalerank":10,"name":"Sarandë","pop_min":15,"pop_max":15,"adm0_a3":"ALB","ne_id":1159120029},"geometry":{"type":"Point","coordinates":[19.999999,39.877002]}},{"type":"Feature","properties":{"scalerank":10,"name":"Ersekë","pop_min":8,"pop_max":8,"adm0_a3":"ALB","ne_id":1159120047},"geometry":{"type":"Point","coordinates":[20.683297,40.333302]}},{"type":"Feature","properties":{"scalerank":10,"name":"Pogradec","pop_min":30,"pop_max":40,"adm0_a3":"ALB","ne_id":1159120063},"geometry":{"type":"Point","coordinates":[20.664001,40.899996]}},{"type":"Feature","properties":{"scalerank":10,"name":"Korçë","pop_min":58,"pop_max":58,"adm0_a3":"ALB","ne_id":1159120077},"geometry":{"type":"Point","coordinates":[20.766664,40.616676]}},{"type":"Feature","properties":{"scalerank":10,"name":"Berat","pop_min":47,"pop_max":47,"adm0_a3":"ALB","ne_id":1159120101},"geometry":{"type":"Point","coordinates":[19.972,40.709997]}},{"type":"Feature","properties":{"scalerank":10,"name":"Çorovodë","pop_min":14,"pop_max":14,"adm0_a3":"ALB","ne_id":1159120119},"geometry":{"type":"Point","coordinates":[20.233297,40.516704]}},{"type":"Feature","properties":{"scalerank":10,"name":"Gramsh","pop_min":12,"pop_max":12,"adm0_a3":"ALB","ne_id":1159120129},"geometry":{"type":"Point","coordinates":[20.199997,40.866696]}},{"type":"Feature","properties":{"scalerank":10,"name":"Librazhd","pop_min":13,"pop_max":13,"adm0_a3":"ALB","ne_id":1159120149},"geometry":{"type":"Point","coordinates":[20.366704,41.200002]}},{"type":"Feature","properties":{"scalerank":10,"name":"Tepelenë","pop_min":12,"pop_max":12,"adm0_a3":"ALB","ne_id":1159120171},"geometry":{"type":"Point","coordinates":[20.033299,40.283298]}},{"type":"Feature","properties":{"scalerank":10,"name":"Përmet","pop_min":11,"pop_max":11,"adm0_a3":"ALB","ne_id":1159120189},"geometry":{"type":"Point","coordinates":[20.351998,40.233996]}},{"type":"Feature","properties":{"scalerank":10,"name":"Gjirokastër","pop_min":23,"pop_max":23,"adm0_a3":"ALB","ne_id":1159120207},"geometry":{"type":"Point","coordinates":[20.149003,40.078998]}},{"type":"Feature","properties":{"scalerank":10,"name":"Peshkopi","pop_min":15,"pop_max":15,"adm0_a3":"ALB","ne_id":1159120227},"geometry":{"type":"Point","coordinates":[20.433304,41.683302]}},{"type":"Feature","properties":{"scalerank":10,"name":"Burrel","pop_min":15,"pop_max":15,"adm0_a3":"ALB","ne_id":1159120241},"geometry":{"type":"Point","coordinates":[20.016001,41.625999]}},{"type":"Feature","properties":{"scalerank":10,"name":"Lezhë","pop_min":19,"pop_max":19,"adm0_a3":"ALB","ne_id":1159120259},"geometry":{"type":"Point","coordinates":[19.654003,41.787999]}},{"type":"Feature","properties":{"scalerank":10,"name":"Rrëshen","pop_min":10,"pop_max":10,"adm0_a3":"ALB","ne_id":1159120277},"geometry":{"type":"Point","coordinates":[19.816705,41.783301]}},{"type":"Feature","properties":{"scalerank":10,"name":"Ashtarak","pop_min":19,"pop_max":19,"adm0_a3":"ARM","ne_id":1159120297},"geometry":{"type":"Point","coordinates":[44.359167,40.301667]}},{"type":"Feature","properties":{"scalerank":10,"name":"Mons","pop_min":91,"pop_max":91,"adm0_a3":"BEL","ne_id":1159120321},"geometry":{"type":"Point","coordinates":[3.939004,50.445999]}},{"type":"Feature","properties":{"scalerank":10,"name":"Hasselt","pop_min":69,"pop_max":69,"adm0_a3":"BEL","ne_id":1159120339},"geometry":{"type":"Point","coordinates":[5.338536,50.928838]}},{"type":"Feature","properties":{"scalerank":10,"name":"Ijevan","pop_min":15,"pop_max":15,"adm0_a3":"ARM","ne_id":1159120357},"geometry":{"type":"Point","coordinates":[45.149167,40.875556]}},{"type":"Feature","properties":{"scalerank":10,"name":"Artashat","pop_min":21,"pop_max":21,"adm0_a3":"ARM","ne_id":1159120381},"geometry":{"type":"Point","coordinates":[44.550556,39.953889]}},{"type":"Feature","properties":{"scalerank":10,"name":"Gavarr","pop_min":22,"pop_max":22,"adm0_a3":"ARM","ne_id":1159120397},"geometry":{"type":"Point","coordinates":[45.126667,40.358889]}},{"type":"Feature","properties":{"scalerank":10,"name":"Gadabay","pop_min":9,"pop_max":9,"adm0_a3":"AZE","ne_id":1159120421},"geometry":{"type":"Point","coordinates":[45.816111,40.565556]}},{"type":"Feature","properties":{"scalerank":10,"name":"Goranboy","pop_min":7,"pop_max":7,"adm0_a3":"AZE","ne_id":1159120437},"geometry":{"type":"Point","coordinates":[46.789722,40.610278]}},{"type":"Feature","properties":{"scalerank":10,"name":"Tovuz","pop_min":13,"pop_max":13,"adm0_a3":"AZE","ne_id":1159120461},"geometry":{"type":"Point","coordinates":[45.628889,40.992222]}},{"type":"Feature","properties":{"scalerank":10,"name":"Agdam","pop_min":0,"pop_max":0,"adm0_a3":"AZE","ne_id":1159120479},"geometry":{"type":"Point","coordinates":[45.556389,40.905278]}},{"type":"Feature","properties":{"scalerank":10,"name":"Qabala","pop_min":12,"pop_max":12,"adm0_a3":"AZE","ne_id":1159120491},"geometry":{"type":"Point","coordinates":[47.845833,40.981389]}},{"type":"Feature","properties":{"scalerank":10,"name":"Oğuz","pop_min":7,"pop_max":7,"adm0_a3":"AZE","ne_id":1159120515},"geometry":{"type":"Point","coordinates":[47.458333,41.070833]}},{"type":"Feature","properties":{"scalerank":10,"name":"Yeghegnadzor","pop_min":8,"pop_max":8,"adm0_a3":"ARM","ne_id":1159120533},"geometry":{"type":"Point","coordinates":[45.333333,39.761111]}},{"type":"Feature","properties":{"scalerank":10,"name":"Qala i Naw","pop_min":3,"pop_max":3,"adm0_a3":"AFG","ne_id":1159120551},"geometry":{"type":"Point","coordinates":[63.1333,34.983]}},{"type":"Feature","properties":{"scalerank":10,"name":"Chaghcharan","pop_min":15,"pop_max":15,"adm0_a3":"AFG","ne_id":1159120569},"geometry":{"type":"Point","coordinates":[65.250001,34.516701]}},{"type":"Feature","properties":{"scalerank":10,"name":"Lashkar Gah","pop_min":202,"pop_max":202,"adm0_a3":"AFG","ne_id":1159120587},"geometry":{"type":"Point","coordinates":[64.36,31.582998]}},{"type":"Feature","properties":{"scalerank":10,"name":"Zaranj","pop_min":50,"pop_max":50,"adm0_a3":"AFG","ne_id":1159120605},"geometry":{"type":"Point","coordinates":[61.886998,31.112001]}},{"type":"Feature","properties":{"scalerank":10,"name":"Tarin Kowt","pop_min":10,"pop_max":10,"adm0_a3":"AFG","ne_id":1159120625},"geometry":{"type":"Point","coordinates":[65.866699,32.633298]}},{"type":"Feature","properties":{"scalerank":10,"name":"Zareh Sharan","pop_min":14,"pop_max":14,"adm0_a3":"AFG","ne_id":1159120645},"geometry":{"type":"Point","coordinates":[68.416705,32.85]}},{"type":"Feature","properties":{"scalerank":10,"name":"Asadabad","pop_min":48,"pop_max":48,"adm0_a3":"AFG","ne_id":1159120671},"geometry":{"type":"Point","coordinates":[71.150005,34.866]}},{"type":"Feature","properties":{"scalerank":10,"name":"Taloqan","pop_min":64,"pop_max":64,"adm0_a3":"AFG","ne_id":1159120693},"geometry":{"type":"Point","coordinates":[69.540004,36.729999]}},{"type":"Feature","properties":{"scalerank":10,"name":"Mahmud-E Eraqi","pop_min":7,"pop_max":7,"adm0_a3":"AFG","ne_id":1159120711},"geometry":{"type":"Point","coordinates":[69.333301,35.016696]}},{"type":"Feature","properties":{"scalerank":10,"name":"Mehtar Lam","pop_min":17,"pop_max":17,"adm0_a3":"AFG","ne_id":1159120727},"geometry":{"type":"Point","coordinates":[70.166701,34.65]}},{"type":"Feature","properties":{"scalerank":10,"name":"Baraki Barak","pop_min":22,"pop_max":22,"adm0_a3":"AFG","ne_id":1159120743},"geometry":{"type":"Point","coordinates":[68.966704,33.966702]}},{"type":"Feature","properties":{"scalerank":10,"name":"Aybak","pop_min":24,"pop_max":24,"adm0_a3":"AFG","ne_id":1159120765},"geometry":{"type":"Point","coordinates":[68.040001,36.261]}},{"type":"Feature","properties":{"scalerank":10,"name":"Mayda Shahr","pop_min":35,"pop_max":35,"adm0_a3":"AFG","ne_id":1159120777},"geometry":{"type":"Point","coordinates":[68.799997,34.450002]}},{"type":"Feature","properties":{"scalerank":10,"name":"Kampong Spoe","pop_min":33,"pop_max":33,"adm0_a3":"KHM","ne_id":1159120795},"geometry":{"type":"Point","coordinates":[104.518999,11.451996]}},{"type":"Feature","properties":{"scalerank":10,"name":"Kampong Thum","pop_min":20,"pop_max":20,"adm0_a3":"KHM","ne_id":1159120815},"geometry":{"type":"Point","coordinates":[104.888998,12.711996]}},{"type":"Feature","properties":{"scalerank":10,"name":"Prey Veng","pop_min":74,"pop_max":74,"adm0_a3":"KHM","ne_id":1159120831},"geometry":{"type":"Point","coordinates":[105.324004,11.484]}},{"type":"Feature","properties":{"scalerank":10,"name":"Phnum Tbeng Meanchey","pop_min":24,"pop_max":24,"adm0_a3":"KHM","ne_id":1159120843},"geometry":{"type":"Point","coordinates":[104.966704,13.816701]}},{"type":"Feature","properties":{"scalerank":10,"name":"Stoeng Treng","pop_min":30,"pop_max":30,"adm0_a3":"KHM","ne_id":1159120859},"geometry":{"type":"Point","coordinates":[105.974002,13.523004]}},{"type":"Feature","properties":{"scalerank":10,"name":"Kracheh","pop_min":20,"pop_max":20,"adm0_a3":"KHM","ne_id":1159120879},"geometry":{"type":"Point","coordinates":[106.023997,12.468996]}},{"type":"Feature","properties":{"scalerank":10,"name":"Senmonorom","pop_min":8,"pop_max":8,"adm0_a3":"KHM","ne_id":1159120887},"geometry":{"type":"Point","coordinates":[107.2,12.449997]}},{"type":"Feature","properties":{"scalerank":10,"name":"Lumphat","pop_min":19,"pop_max":19,"adm0_a3":"KHM","ne_id":1159120907},"geometry":{"type":"Point","coordinates":[106.981003,13.507002]}},{"type":"Feature","properties":{"scalerank":10,"name":"Svay Rieng","pop_min":24,"pop_max":24,"adm0_a3":"KHM","ne_id":1159120929},"geometry":{"type":"Point","coordinates":[105.801004,11.079999]}},{"type":"Feature","properties":{"scalerank":10,"name":"Jijel","pop_min":148,"pop_max":148,"adm0_a3":"DZA","ne_id":1159120945},"geometry":{"type":"Point","coordinates":[5.766004,36.821997]}},{"type":"Feature","properties":{"scalerank":10,"name":"Lokossa","pop_min":87,"pop_max":87,"adm0_a3":"BEN","ne_id":1159120959},"geometry":{"type":"Point","coordinates":[1.715005,6.615]}},{"type":"Feature","properties":{"scalerank":10,"name":"Fada Ngourma","pop_min":34,"pop_max":34,"adm0_a3":"BFA","ne_id":1159120975},"geometry":{"type":"Point","coordinates":[0.361,12.054996]}},{"type":"Feature","properties":{"scalerank":10,"name":"Tizi-Ouzou","pop_min":144,"pop_max":144,"adm0_a3":"DZA","ne_id":1159120991},"geometry":{"type":"Point","coordinates":[4.046144,36.71171]}},{"type":"Feature","properties":{"scalerank":10,"name":"Bordj Bou Arréridj","pop_min":129,"pop_max":140,"adm0_a3":"DZA","ne_id":1159121009},"geometry":{"type":"Point","coordinates":[4.764662,36.077709]}},{"type":"Feature","properties":{"scalerank":10,"name":"M'sila","pop_min":100,"pop_max":150,"adm0_a3":"DZA","ne_id":1159121019},"geometry":{"type":"Point","coordinates":[4.545001,35.700003]}},{"type":"Feature","properties":{"scalerank":10,"name":"Guelma","pop_min":124,"pop_max":124,"adm0_a3":"DZA","ne_id":1159121039},"geometry":{"type":"Point","coordinates":[7.427998,36.466002]}},{"type":"Feature","properties":{"scalerank":10,"name":"Oum el Bouaghi","pop_min":101,"pop_max":101,"adm0_a3":"DZA","ne_id":1159121049},"geometry":{"type":"Point","coordinates":[7.149997,35.849997]}},{"type":"Feature","properties":{"scalerank":10,"name":"Lovec","pop_min":42,"pop_max":42,"adm0_a3":"BGR","ne_id":1159121071},"geometry":{"type":"Point","coordinates":[24.719005,43.137999]}},{"type":"Feature","properties":{"scalerank":10,"name":"Montana","pop_min":47,"pop_max":47,"adm0_a3":"BGR","ne_id":1159121085},"geometry":{"type":"Point","coordinates":[23.237002,43.414002]}},{"type":"Feature","properties":{"scalerank":10,"name":"Razgrad","pop_min":38,"pop_max":38,"adm0_a3":"BGR","ne_id":1159121103},"geometry":{"type":"Point","coordinates":[26.535997,43.533999]}},{"type":"Feature","properties":{"scalerank":10,"name":"Arlon","pop_min":26,"pop_max":26,"adm0_a3":"BEL","ne_id":1159121119},"geometry":{"type":"Point","coordinates":[5.816701,49.683303]}},{"type":"Feature","properties":{"scalerank":10,"name":"Bregenz","pop_min":27,"pop_max":27,"adm0_a3":"AUT","ne_id":1159121131},"geometry":{"type":"Point","coordinates":[9.766702,47.516697]}},{"type":"Feature","properties":{"scalerank":10,"name":"Eisenstadt","pop_min":13,"pop_max":13,"adm0_a3":"AUT","ne_id":1159121147},"geometry":{"type":"Point","coordinates":[16.533298,47.833299]}},{"type":"Feature","properties":{"scalerank":10,"name":"Paro","pop_min":15,"pop_max":15,"adm0_a3":"BTN","ne_id":1159121163},"geometry":{"type":"Point","coordinates":[89.416777,27.42937]}},{"type":"Feature","properties":{"scalerank":10,"name":"Punakha","pop_min":5,"pop_max":5,"adm0_a3":"BTN","ne_id":1159121181},"geometry":{"type":"Point","coordinates":[89.864135,27.584154]}},{"type":"Feature","properties":{"scalerank":10,"name":"Loikaw","pop_min":17,"pop_max":17,"adm0_a3":"MMR","ne_id":1159121199},"geometry":{"type":"Point","coordinates":[97.206004,19.665]}},{"type":"Feature","properties":{"scalerank":10,"name":"Wangdue Prodrang","pop_min":5,"pop_max":5,"adm0_a3":"BTN","ne_id":1159121217},"geometry":{"type":"Point","coordinates":[89.916697,27.433296]}},{"type":"Feature","properties":{"scalerank":10,"name":"Cankuzo","pop_min":7,"pop_max":7,"adm0_a3":"BDI","ne_id":1159121233},"geometry":{"type":"Point","coordinates":[30.516697,-3.166704]}},{"type":"Feature","properties":{"scalerank":10,"name":"Karusi","pop_min":11,"pop_max":11,"adm0_a3":"BDI","ne_id":1159121251},"geometry":{"type":"Point","coordinates":[30.162997,-3.099996]}},{"type":"Feature","properties":{"scalerank":10,"name":"Rutana","pop_min":21,"pop_max":21,"adm0_a3":"BDI","ne_id":1159121267},"geometry":{"type":"Point","coordinates":[29.993005,-3.931002]}},{"type":"Feature","properties":{"scalerank":10,"name":"Ruyigi","pop_min":38,"pop_max":38,"adm0_a3":"BDI","ne_id":1159121281},"geometry":{"type":"Point","coordinates":[30.243997,-3.481002]}},{"type":"Feature","properties":{"scalerank":10,"name":"Bubanza","pop_min":13,"pop_max":13,"adm0_a3":"BDI","ne_id":1159121299},"geometry":{"type":"Point","coordinates":[29.366704,-3.083301]}},{"type":"Feature","properties":{"scalerank":10,"name":"Kayanza","pop_min":19,"pop_max":19,"adm0_a3":"BDI","ne_id":1159121315},"geometry":{"type":"Point","coordinates":[29.566702,-2.899998]}},{"type":"Feature","properties":{"scalerank":10,"name":"Makamba","pop_min":20,"pop_max":20,"adm0_a3":"BDI","ne_id":1159121333},"geometry":{"type":"Point","coordinates":[29.8,-4.133304]}},{"type":"Feature","properties":{"scalerank":10,"name":"Ngozi","pop_min":22,"pop_max":22,"adm0_a3":"BDI","ne_id":1159121345},"geometry":{"type":"Point","coordinates":[29.825002,-2.912004]}},{"type":"Feature","properties":{"scalerank":10,"name":"Kirundo","pop_min":6,"pop_max":6,"adm0_a3":"BDI","ne_id":1159121359},"geometry":{"type":"Point","coordinates":[30.097222,-2.584722]}},{"type":"Feature","properties":{"scalerank":10,"name":"Orodara","pop_min":19,"pop_max":19,"adm0_a3":"BFA","ne_id":1159121379},"geometry":{"type":"Point","coordinates":[-4.907996,10.973997]}},{"type":"Feature","properties":{"scalerank":10,"name":"Solenzo","pop_min":10,"pop_max":10,"adm0_a3":"BFA","ne_id":1159121389},"geometry":{"type":"Point","coordinates":[-4.083333,12.183333]}},{"type":"Feature","properties":{"scalerank":10,"name":"Nouna","pop_min":29,"pop_max":29,"adm0_a3":"BFA","ne_id":1159121409},"geometry":{"type":"Point","coordinates":[-3.86,12.728997]}},{"type":"Feature","properties":{"scalerank":10,"name":"Dédougou","pop_min":45,"pop_max":45,"adm0_a3":"BFA","ne_id":1159121417},"geometry":{"type":"Point","coordinates":[-3.464,12.455001]}},{"type":"Feature","properties":{"scalerank":10,"name":"Gorom Gorom","pop_min":7,"pop_max":7,"adm0_a3":"BFA","ne_id":1159121437},"geometry":{"type":"Point","coordinates":[-0.233297,14.450004]}},{"type":"Feature","properties":{"scalerank":10,"name":"Djibo","pop_min":22,"pop_max":22,"adm0_a3":"BFA","ne_id":1159121453},"geometry":{"type":"Point","coordinates":[-1.627001,14.099004]}},{"type":"Feature","properties":{"scalerank":10,"name":"Tougan","pop_min":18,"pop_max":18,"adm0_a3":"BFA","ne_id":1159121471},"geometry":{"type":"Point","coordinates":[-3.069998,13.068999]}},{"type":"Feature","properties":{"scalerank":10,"name":"Kombissiri","pop_min":30,"pop_max":30,"adm0_a3":"BFA","ne_id":1159121487},"geometry":{"type":"Point","coordinates":[-1.333997,12.063996]}},{"type":"Feature","properties":{"scalerank":10,"name":"Ziniaré","pop_min":13,"pop_max":13,"adm0_a3":"BFA","ne_id":1159121505},"geometry":{"type":"Point","coordinates":[-1.293002,12.576996]}},{"type":"Feature","properties":{"scalerank":10,"name":"Yako","pop_min":23,"pop_max":23,"adm0_a3":"BFA","ne_id":1159121521},"geometry":{"type":"Point","coordinates":[-2.262995,12.953997]}},{"type":"Feature","properties":{"scalerank":10,"name":"Réo","pop_min":38,"pop_max":38,"adm0_a3":"BFA","ne_id":1159121539},"geometry":{"type":"Point","coordinates":[-2.466944,12.333492]}},{"type":"Feature","properties":{"scalerank":10,"name":"Leo","pop_min":27,"pop_max":27,"adm0_a3":"BFA","ne_id":1159121553},"geometry":{"type":"Point","coordinates":[-2.097998,11.094003]}},{"type":"Feature","properties":{"scalerank":10,"name":"Sapouy","pop_min":4,"pop_max":4,"adm0_a3":"BFA","ne_id":1159121571},"geometry":{"type":"Point","coordinates":[-1.773611,11.554444]}},{"type":"Feature","properties":{"scalerank":10,"name":"Boulsa","pop_min":17,"pop_max":17,"adm0_a3":"BFA","ne_id":1159121591},"geometry":{"type":"Point","coordinates":[-0.568997,12.656997]}},{"type":"Feature","properties":{"scalerank":10,"name":"Zorgo","pop_min":24,"pop_max":24,"adm0_a3":"BFA","ne_id":1159121599},"geometry":{"type":"Point","coordinates":[-0.611,12.242997]}},{"type":"Feature","properties":{"scalerank":10,"name":"Koupéla","pop_min":32,"pop_max":32,"adm0_a3":"BFA","ne_id":1159121621},"geometry":{"type":"Point","coordinates":[-0.356003,12.177]}},{"type":"Feature","properties":{"scalerank":10,"name":"Pô","pop_min":18,"pop_max":18,"adm0_a3":"BFA","ne_id":1159121629},"geometry":{"type":"Point","coordinates":[-1.134998,11.169]}},{"type":"Feature","properties":{"scalerank":10,"name":"Manga","pop_min":15,"pop_max":15,"adm0_a3":"BFA","ne_id":1159121647},"geometry":{"type":"Point","coordinates":[-1.064996,11.662002]}},{"type":"Feature","properties":{"scalerank":10,"name":"Diébougou","pop_min":13,"pop_max":13,"adm0_a3":"BFA","ne_id":1159121675},"geometry":{"type":"Point","coordinates":[-3.248,10.952001]}},{"type":"Feature","properties":{"scalerank":10,"name":"Gaoua","pop_min":28,"pop_max":28,"adm0_a3":"BFA","ne_id":1159121689},"geometry":{"type":"Point","coordinates":[-3.174002,10.324998]}},{"type":"Feature","properties":{"scalerank":10,"name":"Bogandé","pop_min":10,"pop_max":10,"adm0_a3":"BFA","ne_id":1159121701},"geometry":{"type":"Point","coordinates":[-0.137996,12.969]}},{"type":"Feature","properties":{"scalerank":10,"name":"Dori","pop_min":38,"pop_max":38,"adm0_a3":"BFA","ne_id":1159121717},"geometry":{"type":"Point","coordinates":[-0.027998,14.033997]}},{"type":"Feature","properties":{"scalerank":10,"name":"Sebba","pop_min":3,"pop_max":3,"adm0_a3":"BFA","ne_id":1159121737},"geometry":{"type":"Point","coordinates":[0.530443,13.436412]}},{"type":"Feature","properties":{"scalerank":10,"name":"Diapaga","pop_min":26,"pop_max":26,"adm0_a3":"BFA","ne_id":1159121755},"geometry":{"type":"Point","coordinates":[1.796005,12.077001]}},{"type":"Feature","properties":{"scalerank":10,"name":"Pa-an","pop_min":50,"pop_max":50,"adm0_a3":"MMR","ne_id":1159121771},"geometry":{"type":"Point","coordinates":[97.616701,16.849998]}},{"type":"Feature","properties":{"scalerank":10,"name":"Hakha","pop_min":20,"pop_max":20,"adm0_a3":"MMR","ne_id":1159121785},"geometry":{"type":"Point","coordinates":[93.616705,22.650003]}},{"type":"Feature","properties":{"scalerank":10,"name":"Taunggyi","pop_min":160,"pop_max":160,"adm0_a3":"MMR","ne_id":1159121797},"geometry":{"type":"Point","coordinates":[97.038001,20.781999]}},{"type":"Feature","properties":{"scalerank":10,"name":"Sagaing","pop_min":79,"pop_max":79,"adm0_a3":"MMR","ne_id":1159121811},"geometry":{"type":"Point","coordinates":[95.961997,21.879999]}},{"type":"Feature","properties":{"scalerank":10,"name":"Muramvya","pop_min":18,"pop_max":18,"adm0_a3":"BDI","ne_id":1159121827},"geometry":{"type":"Point","coordinates":[29.611999,-3.260997]}},{"type":"Feature","properties":{"scalerank":10,"name":"Larnaka","pop_min":49,"pop_max":49,"adm0_a3":"CYP","ne_id":1159121843},"geometry":{"type":"Point","coordinates":[33.635998,34.917003]}},{"type":"Feature","properties":{"scalerank":10,"name":"Paphos","pop_min":36,"pop_max":36,"adm0_a3":"CYP","ne_id":1159121859},"geometry":{"type":"Point","coordinates":[32.422457,34.755915]}},{"type":"Feature","properties":{"scalerank":10,"name":"Laascaanood","pop_min":60,"pop_max":60,"adm0_a3":"SOL","ne_id":1159121875},"geometry":{"type":"Point","coordinates":[47.3167,8.433297]}},{"type":"Feature","properties":{"scalerank":10,"name":"Ceerigaabo","pop_min":150,"pop_max":180,"adm0_a3":"SOL","ne_id":1159121897},"geometry":{"type":"Point","coordinates":[47.333305,10.583298]}},{"type":"Feature","properties":{"scalerank":10,"name":"Santo António","pop_min":1,"pop_max":1,"adm0_a3":"STP","ne_id":1159121905},"geometry":{"type":"Point","coordinates":[7.412005,1.645002]}},{"type":"Feature","properties":{"scalerank":10,"name":"Daru","pop_min":15,"pop_max":15,"adm0_a3":"PNG","ne_id":1159121931},"geometry":{"type":"Point","coordinates":[143.233723,-9.109152]}},{"type":"Feature","properties":{"scalerank":10,"name":"Ramallah","pop_min":25,"pop_max":25,"adm0_a3":"PSX","ne_id":1159121947},"geometry":{"type":"Point","coordinates":[35.206209,31.902945]}},{"type":"Feature","properties":{"scalerank":10,"name":"Kyrenia","pop_min":27,"pop_max":27,"adm0_a3":"CYN","ne_id":1159121963},"geometry":{"type":"Point","coordinates":[33.333004,35.325999]}},{"type":"Feature","properties":{"scalerank":9,"name":"San Carlos","pop_min":77,"pop_max":77,"adm0_a3":"VEN","ne_id":1159121977},"geometry":{"type":"Point","coordinates":[-68.589998,9.657999]}},{"type":"Feature","properties":{"scalerank":9,"name":"San Felipe","pop_min":77,"pop_max":77,"adm0_a3":"VEN","ne_id":1159121993},"geometry":{"type":"Point","coordinates":[-68.745995,10.335996]}},{"type":"Feature","properties":{"scalerank":9,"name":"San Juan De Los Morros","pop_min":88,"pop_max":88,"adm0_a3":"VEN","ne_id":1159122009},"geometry":{"type":"Point","coordinates":[-67.354002,9.900999]}},{"type":"Feature","properties":{"scalerank":9,"name":"La Asunción","pop_min":35,"pop_max":35,"adm0_a3":"VEN","ne_id":1159122025},"geometry":{"type":"Point","coordinates":[-63.883331,11.033334]}},{"type":"Feature","properties":{"scalerank":9,"name":"Al Bayda","pop_min":38,"pop_max":38,"adm0_a3":"YEM","ne_id":1159122041},"geometry":{"type":"Point","coordinates":[45.574003,13.978998]}},{"type":"Feature","properties":{"scalerank":9,"name":"'Ataq","pop_min":37,"pop_max":37,"adm0_a3":"YEM","ne_id":1159122053},"geometry":{"type":"Point","coordinates":[46.800001,14.550003]}},{"type":"Feature","properties":{"scalerank":9,"name":"Marib","pop_min":17,"pop_max":17,"adm0_a3":"YEM","ne_id":1159122073},"geometry":{"type":"Point","coordinates":[45.334,15.420996]}},{"type":"Feature","properties":{"scalerank":9,"name":"Roatán","pop_min":8,"pop_max":8,"adm0_a3":"HND","ne_id":1159122085},